PrimaryKey,SecondaryKey,TitleName,TitleNameComment,Name,Comment,Desc,Comment1,NameTag,BalloonNameHide,Icon,Level,Model,ModelSize,Grade,Type,Type1,BeKilledShare,Size,Weight,Parts,DieType,DieAni,DiePhysics,DieGibs,InvokeTrigger,Exp,MoneyPercent,MoneyValue,DropIndex1,DropIndex2,DropIndex3,InteractionRange,PathfindingType,MoveCollison,BlockPCRootMotionSkillPenetrate,ImmuneIndex,Ticketdistance,Detourrange,ShowDamageHighlight,BehitTwistYawMin,BehitTwistYawMax,BehitTwistPitchMin,BehitTwistPitchMax,BehitTwistRollMin,BehitTwistRollMax,MinimumDistance,StatType,AttackPower,Hp,Hp_Count,Mp,CombatHpRecovery,TargetUI,TargetUI_Design,LifeVessel,WalkSpeed,MoveSpeed,Attribute,Coefficient,Hitratio,Crtratio,Dodge,Def,Res,Crtblock,AiIndex,AggroType,AggroTickMin,AggroTickMax,AttackType,MoveRange,WarRange,PursuitRange,SpTime,SpInvincibleDuration,DieSkillIndex,DieSkillPercent,BorderLine,DestroySkillIndex,DestroySkillPercent,SpBuffIndex1,SpBuffIndex2,SpBuffIndex3,SightType,SightAngle1,SightRange1,SightAngle2,SightRange2,WatchAngle,Tribe,HelpType,HelpRange,HelpValue,WarlikeValue,AttackCooltimeMin,AttackCooltimeMax,FirstSkill1,FirstSkill2,FirstSkill1Per,FirstSkill2Per,SecondSkill1,SecondSkill2,SecondSkill3,SecondSkill4,SecondSkill1Per,SecondSkill2Per,SecondSkill3Per,SecondSkill4Per,ModPoint01,ModSignet01Min,ModSignet01Max,BehitDistRate,BehitHeightRate,BehitTimeRate,DieRagDollValueRateStart,DieRagDollValueRateChange,DieRagDollValueRateDest,Function,FunctionType,FunctionName,Relation,SubFactionId,Attack,SummonDuration,UnsummonType,MapIcon,MapPriority,InteractionKeyIcon,InteractionKeyString,ClickActionId,ClickActionTime,CommonActionDesc,AttackTargetDistance,SummonType,SummonSpawnAction,SummonAiType,SummonLifetime,SummonGroup,SummonCount,ExclusionGroup,ExclusionRange,SummonAmount,SummonFollowRange,SummonApproachRange,AttackSightRange1,SummonReturnRange,ParticleSoundPackage,SyncTarget,StiffenPointMax,StiffenPointDecrease,ParalyzationPointMin,ParalyzationPointMax,ParalyzationPointDecrease,ParalyzationPercent
110040,,,,tip.name.npc_monster_110040,이끼 안개 멍울,,정령여왕의 정원,1,0,0,3,EFDLChar_MN_SQSP_00.MN_SQSP_00,130,2,0,0,0,2,0,0,1,100,0,0,1,100,0,100,0,0,0,0,1,0,1,1001,800,0,1,-12385,12385,-12385,12385,-12385,12385,0,0,100,100,2,100,0,1,,0,0,0,0,100,100,100,100,100,100,100,7000,0,1000,1000,1,0,1200,1000,60,1000,110048,100,0,,,,,,1,360,700,0,0,180,100000,0,0,1,1,0,500,110040,0,100,0,0,0,0,0,0,0,0,0,,,,,,,1.7,0.9,0.7,,,,0,0,0,,,,,,,,,,,,0,,,,,,,,,,,,EFDataPS_MonsterSet.MN_SQDK_00,1,0,0,0,0,0,0
110041,,,,tip.name.npc_monster_110041,이끼 안개 멍울,,베노스 상층부-바람의 성소 인스턴스,1,0,0,6,EFDLChar_MN_SQSP_00.MN_SQSP_00,130,2,0,0,0,2,0,0,1,100,0,0,1,100,0,100,0,0,0,0,1,0,1,1001,800,0,1,-12385,12385,-12385,12385,-12385,12385,0,0,115,110,4,100,0,1,,0,0,0,0,100,100,100,100,100,100,100,7000,0,1000,1000,1,0,1200,1000,60,1000,110048,100,0,,,,,,1,360,700,0,0,180,100000,0,0,1,1,0,500,110045,0,100,0,0,0,0,0,0,0,0,0,,,,,,,1.7,0.9,0.7,,,,0,0,0,,,,,,,,,,,,0,,,,,,,,,,,,,1,0,0,0,0,0,0
110042,,,,tip.name.npc_monster_110042,이끼 안개 멍울,,베노스 상층부,1,0,0,3,EFDLChar_MN_SQSP_00.MN_SQSP_00,130,2,0,0,0,2,0,0,1,100,0,0,1,100,0,100,0,0,0,0,1,0,1,1001,800,0,1,-12385,12385,-12385,12385,-12385,12385,0,0,100,100,2,100,0,1,,0,0,0,0,100,100,100,100,100,100,100,7000,0,1000,1000,1,0,1200,1000,60,1000,110048,100,0,,,,,,1,360,700,0,0,180,100000,0,0,1,1,0,500,110041,0,100,0,0,0,0,0,0,0,0,0,,,,,,,1.7,0.9,0.7,,,,0,0,0,,,,,,,,,,,,0,,,,,,,,,,,,,1,0,0,0,0,0,0
110043,,,,tip.name.npc_monster_110043,이끼 안개 멍울,,베노스 상층부,1,0,0,3,EFDLChar_MN_SQSP_00.MN_SQSP_00,130,2,0,0,0,2,0,0,1,100,0,0,1,100,0,100,0,0,0,0,1,0,1,1001,800,0,1,-12385,12385,-12385,12385,-12385,12385,0,0,100,100,2,100,0,1,,0,0,0,0,100,100,100,100,100,100,100,7000,0,1000,1000,1,0,1200,1000,60,1000,110048,100,0,,,,,,1,360,700,0,0,180,100000,0,0,1,1,0,500,110042,0,100,0,0,0,0,0,0,0,0,0,,,,,,,1.7,0.9,0.7,,,,0,0,0,,,,,,,,,,,,0,,,,,,,,,,,,,1,0,0,0,0,0,0
110170,,,,tip.name.npc_monster_110170,화염 악마 멍울,,베노스 하층부-침묵의 섬 인스턴스,1,0,0,9,EFDLChar_MN_SQSP_00-1.MN_SQSP_00-1,130,2,0,0,0,2,0,0,1,100,0,0,1,100,0,100,0,0,0,0,1,0,1,1001,800,0,1,-12385,12385,-12385,12385,-12385,12385,0,0,115,110,4,100,0,1,,0,0,0,0,100,100,100,100,100,100,100,7000,0,1000,1000,1,0,1200,1000,60,1000,110049,100,0,,,,,,1,360,700,0,0,180,100000,0,0,1,1,0,500,110043,0,100,0,0,0,0,0,0,0,0,0,,,,,,,1.7,0.9,0.7,,,,0,0,0,,,,,,,,,,,,0,,,,,,,,,,,,,1,0,0,0,0,0,0
110171,,,,tip.name.npc_monster_110171,화염 악마 멍울,,금제단,1,0,0,3,EFDLChar_MN_SQSP_00-1.MN_SQSP_00-1,130,2,0,0,0,2,0,0,1,100,0,0,1,100,0,100,0,0,0,0,1,0,1,1001,800,0,1,-12385,12385,-12385,12385,-12385,12385,0,0,100,100,2,100,0,1,,0,0,0,0,100,100,100,100,100,100,100,7000,0,1000,1000,1,0,1200,1000,60,1000,110049,100,0,,,,,,1,360,700,0,0,180,100000,0,0,1,1,0,500,110044,0,100,0,0,0,0,0,0,0,0,0,,,,,,,1.7,0.9,0.7,,,,0,0,0,,,,,,,,,,,,0,,,,,,,,,,,,,1,0,0,0,0,0,0
117110,,,,tip.name.npc_monster_117110,역병 인도자,,오즈혼 구릉지,1,0,0,18,EFDLChar_MN_AHPI_00.MN_AHPI_00,100,5,0,0,0,3,0,0,1,100,0,0,1,100,0,100,0,0,0,0,2,0,1,1001,800,0,1,-12385,12385,-12385,12385,-12385,12385,0,0,80,25,2,100,0,1,,0,100,200,0,100,100,100,100,100,100,100,7290,0,1000,1000,1,300,2200,1400,60,1000,0,0,0,,,,,,1,360,400,0,0,0,100000,0,0,1,1,0,500,101370,101371,50,50,0,0,0,0,0,0,0,25,,,,,,,1.7,0.9,0.7,,,,0,0,0,,,,,,,,,,,,0,,,,,,,,,,,,,1,0,0,0,0,0,0
119000,,,,tip.name.npc_monster_119000,어둠의 정령기사,,정령여왕의 정원,1,0,0,3,EFDLChar_MN_SQDK_00.MN_SQDK_00,100,4,0,7,0,3,0,0,1,100,0,0,1,100,0,100,0,0,0,0,2,0,1,1001,800,0,1,-12385,12385,-12385,12385,-12385,12385,0,0,105.8,118.8,2,100,0,1,,0,95,230,0,100,100,100,100,80,120,100,9020,0,1000,1000,1,300,0,0,60,4500,0,0,0,,,,,,1,360,3000,0,0,0,0,0,0,0,0,0,500,0,0,0,0,100110,100111,100112,0,34,33,33,0,,,,,,,1.7,0.9,0.7,,,,0,0,0,,,,,,,,,,,,0,,,,,,,,,,,,EFDataPS_MonsterSet.mn_pavr_00,1,0,0,0,0,0,0
119020,,,,tip.name.npc_monster_119020,벨모로크,,금제단,1,0,0,12,EFDLChar_MN_PAVR_00.MN_PAVR_00,75,4,0,0,0,3,0,0,2,0,100,0,1,100,0,100,0,0,0,0,2,0,1,1001,800,0,1,-12385,12385,-12385,12385,-12385,12385,0,0,100,100,4,100,0,1,,0,210,250,0,100,100,100,100,100,100,100,9030,0,1000,1000,1,300,0,0,60,4200,0,0,0,,,,,,1,360,3000,0,0,0,100000,0,0,0,0,0,500,100242,0,100,0,100240,100243,100244,0,34,33,33,0,,,,,,,1.7,0.9,0.7,,,,0,0,0,,,,,,,,,,,,0,,,,,,,,,,,,,1,0,0,0,0,0,0
120120,,,,tip.name.npc_monster_120120,불칸,,로그힐,1,0,0,11,EFDLChar_MN_LGBK_00.MN_LGBK_00,100,5,0,0,0,4,0,0,7,50,30,20,1,100,0,100,1005,11002,0,0,1,0,1,1002,800,0,1,-12385,12385,-12385,12385,-12385,12385,0,0,75,100,5,100,0,2,,0,100,250,0,100,100,100,100,100,100,100,7000,0,1000,1000,0,300,2200,1400,60,1000,0,0,0,,,,,,1,360,500,0,0,0,100000,0,0,1,1,0,500,0,0,0,0,120120,120121,120122,120123,25,25,25,25,,,,,,,1.7,0.9,0.7,,,,0,0,0,,,,,,,,,,,,0,,,,,,,,,,,,,1,0,0,0,0,0,0
120340,,,,tip.name.npc_monster_120340,역병 인도자,,아길로스의 머리_마법,1,0,0,14,EFDLChar_MN_AHPI_00.MN_AHPI_00,100,5,0,0,0,3,0,0,1,100,0,0,1,100,0,100,1005,11002,0,0,2,0,1,1001,800,0,1,-12385,12385,-12385,12385,-12385,12385,0,0,60,6,2,100,0,1,,0,100,200,0,100,100,100,100,100,100,100,7290,0,1000,1000,1,300,0,0,60,1000,0,0,0,,,,,,1,360,750,0,0,0,100000,0,0,1,1,0,500,101370,101371,50,50,0,0,0,0,0,0,0,25,25,,,,,,1.7,0.9,0.7,,,,0,0,0,,,,,,,,,,,,0,,,,,,,,,,,,,1,0,0,0,0,0,0
120390,,,,tip.name.npc_monster_120390,바즐라,,아길로스의 꼬리_물리,1,0,0,16,EFDLChar_MN_CDEBZ_00.MN_CDEBZ_00,100,5,0,0,0,3,0,0,1,100,0,0,1,100,0,100,1105,11005,0,0,2,0,1,1002,800,0,1,-12385,12385,-12385,12385,-12385,12385,0,0,110,40,5,100,0,1,,0,100,200,0,100,100,100,100,100,100,100,7000,0,1000,1000,1,300,5000,5000,60,1000,0,0,0,,,,,,1,360,600,0,0,0,100000,0,0,1,1,0,500,0,0,0,0,101530,101531,101532,0,34,33,33,0,,,,,,,1.7,0.9,0.7,,,,0,0,0,,,,,,,,,,,,0,,,,,,,,,,,,,1,0,0,0,0,0,0
122200,,,,tip.name.npc_monster_122200,한이 서린 여인,,아르테미스 국경지대,1,0,0,15,EFDLChar_MN_MVTT_00.MN_MVTT_00,100,5,0,2,0,2,0,0,1,100,0,0,1,100,6,100,1005,11002,0,0,1,0,1,1001,800,0,1,-12385,12385,-12385,12385,-12385,12385,0,0,90,18,2,100,0,0,,0,100,200,6,100,100,100,100,100,100,100,7000,0,1000,1000,,1,150,2200,3000,60,1000,0,0,,,,,,1,360,600,0,0,0,100000,0,0,1,1,1000,2000,101680,101681,70,30,0,0,0,0,0,0,0,0,25,,,,,,1.7,0.9,0.7,,,,0,0,0,,,,,,,,,,,,0,,,,,,,,,,,,,1,0,0,0,0,0,0
122290,,,,tip.name.npc_monster_122290,카스릭,,국경지대,1,0,0,15,EFDLChar_MN_FZKR_00.MN_FZKR_00,100,5,0,6,0,4,0,0,1,100,0,0,1,100,100,100,1005,11002,0,0,4,0,1,1001,800,0,1,-12385,12385,-12385,12385,-12385,12385,0,0,100,150,8,100,1000,2,,0,100,250,0,100,100,100,100,110,110,100,101800,3,10000,15000,2,300,3500,3000,60,1000,0,0,0,,,,,,1,360,450,0,0,0,100000,0,0,1,1,200,800,101800,101801,50,50,101802,101803,0,0,50,50,0,0,25,,,,,,1.7,0.9,0.7,,,,0,0,0,,,,,,,,,,,,0,,,,,,,,,,,,,1,0,0,0,0,0,0
122300,,,,tip.name.npc_monster_122300,루드릭,,코일즈 계곡,1,0,0,12,EFDLChar_MN_FZKR_00.MN_FZKR_00,100,5,0,6,0,4,0,0,1,100,0,0,1,100,100,100,1005,11002,0,0,4,0,1,1001,800,0,1,-12385,12385,-12385,12385,-12385,12385,0,0,100,150,8,100,1000,2,,0,100,250,0,100,100,100,100,110,110,100,101800,3,10000,15000,2,300,3500,3000,60,1000,0,0,0,,,,,,1,360,450,0,0,0,100000,0,0,1,1,200,800,101800,101801,50,50,101802,101803,0,0,50,50,0,0,0,,,,,,1.7,0.9,0.7,,,,0,0,0,,,,,,,,,,,,0,,,,,,,,,,,,,1,0,0,0,0,0,0
124000,,,,tip.name.npc_monster_124000,하르잘,,아길로스의 꼬리_물리,1,0,0,16,EFDLChar_MN_CDEHJ_00.MN_CDEHJ_00,100,5,0,0,0,4,0,0,1,100,0,0,1,100,0,100,1105,11005,0,0,4,0,1,1001,800,0,1,-12385,12385,-12385,12385,-12385,12385,0,0,150,110,6,100,0,1,,0,100,200,0,100,100,100,100,100,100,100,7000,0,1000,1000,1,300,4000,3000,60,1000,0,0,0,,,,,,1,360,400,0,0,0,100000,0,0,1,1,0,500,0,0,0,0,124000,124001,124002,0,34,33,33,0,,,,,,,1.7,0.9,0.7,,,,0,0,0,,,,,,,,,,,,0,,,,,,,,,,,,,1,0,0,0,0,0,0
130140,,,,tip.name.npc_monster_130140,설원의 수호자,,칼날바람언덕,1,0,0,7,EFDLChar_MN_LGBK_00-1.MN_LGBK_00-1,100,4,0,0,1,4,0,0,1,100,0,0,1,100,100,100,1003,11010,0,0,3,0,1,1002,800,0,1,-12385,12385,-12385,12385,-12385,12385,0,0,100,100,4,100,0,2,3,0,100,200,0,100,100,100,100,100,100,100,7010,0,1000,1000,1,300,5000,5000,60,1000,0,0,0,,,,,,1,360,400,0,0,0,100000,0,0,0,0,1000,1500,0,0,0,0,102690,102691,102692,102693,25,25,25,25,0,,,,,,1.7,0.9,0.7,,,,0,0,0,,,,,,,,,,,,0,,,,,,,,,,,,,1,0,0,0,0,0,0
139000,,,,tip.name.npc_monster_139000,예가티,,붉은장막투기장,1,0,0,1,EFDLChar_MN_RAET_00.MN_RAET_00,120,4,0,0,0,4,0,0,7,100,0,0,1,100,0,100,0,0,0,0,5,230,1,1001,800,0,1,-12385,12385,-12385,12385,-12385,12385,200,0,115,110,2,100,0,2,,0,130,220,0,100,100,100,100,100,100,100,9000,0,1000,1000,0,300,0,0,60,1000,0,0,0,,,,,,1,360,3000,0,0,0,100000,0,0,0,0,1000,1500,100592,100593,50,50,0,0,0,0,0,0,0,0,25,,,,,,1.7,0.9,0.7,,,,0,0,0,,,,,,,,,,,,0,,,,,,,,,,,,,1,0,0,0,0,0,0
139020,,,,tip.name.npc_monster_139020,듀라이크,,서클사이드_보스,1,0,0,10,EFDLChar_MN_SJDR_00.MN_SJDR_00,90,4,0,0,0,4,0,0,1,100,0,0,1,100,0,100,0,0,0,0,4,0,1,1001,800,0,1,-12385,12385,-12385,12385,-12385,12385,0,1,115,14750,14,100,0,2,,0,160,160,1,100,100,100,100,100,100,100,9070,0,1000,1000,1,300,5000,5000,60,1000,0,0,0,,,,,,1,360,800,0,0,0,0,0,0,0,0,1000,1500,0,0,0,0,101000,101002,101003,0,34,33,33,0,0,,,,,,1.7,0.9,0.7,,,,0,0,0,,,,,,,,,,,,0,,,,,,,,,,,,,1,0,0,0,0,0,0
149000,,,,tip.name.npc_monster_149000,파로멘자,,시간이 멈춘 사원_근원거리물마,1,0,0,10,EFDLChar_MN_TSPM_00.MN_TSPM_00,100,4,0,0,0,3,0,0,1,100,0,0,1,100,0,100,0,0,0,0,4,0,1,1001,800,0,1,-12385,12385,-12385,12385,-12385,12385,0,0,100,100,4,100,0,1,,0,100,300,0,100,100,100,100,100,100,100,101090,0,1000,1000,1,300,4000,3000,60,1000,0,0,0,,,,,,1,360,400,0,0,0,100000,0,0,0,0,0,500,0,0,0,0,101090,101091,101092,101093,100,0,0,0,,,,,,,1.7,0.9,0.7,,,,0,0,0,,,,,,,,,,,,0,,,,,,,,,,,,,1,0,0,0,0,0,0
149020,,,,tip.name.npc_monster_149020,Dr. 아이히만,,아이히만 연구기지,1,0,0,3,EFDLChar_MN_ELAH_00.MN_ELAH_00,100,4,0,0,0,4,0,0,1,100,0,0,1,100,0,100,0,0,0,0,7,0,1,1001,800,0,1,-12385,12385,-12385,12385,-12385,12385,0,0,115,110,2,100,0,1,,0,75,200,0,100,100,100,100,100,100,100,9010,0,1000,1000,1,300,4000,3000,60,1000,0,0,0,,,,,,1,360,3000,0,0,0,100000,0,0,0,0,0,500,0,0,0,0,100530,100531,100532,0,34,33,33,0,,,,,,,1.7,0.9,0.7,,,,0,0,0,,,,,,,,,,,,0,,,,,,,,,,,,,1,0,0,0,0,0,0
150100,,,,tip.name.npc_monster_150100,리디아,,카양겔_원거리마법,1,0,0,70,EFDLChar_NP_KGLA_00.NP_KGLA_00,100,5,0,0,0,2,0,0,3,50,50,0,1,100,0,100,1105,11005,0,0,1,0,1,1001,800,0,1,-12385,12385,-12385,12385,-12385,12385,0,0,130,220,6,100,0,1,,0,110,280,0,100,100,100,100,100,100,100,7000,0,1000,1000,0,150,2200,1400,60,1000,0,0,0,,,,,,1,360,450,0,0,0,100000,1,300,1,1,0,500,120250,0,100,0,0,0,0,0,0,0,0,0,,,,,,,1.7,0.9,0.7,,,,0,0,0,,,,,,,,,,,,0,,,,,,,,,,,,,1,0,0,0,0,0,0
150120,,,,tip.name.npc_monster_150120,발디르,,카양겔_근거리물리,1,0,0,60,EFDLChar_NP_CVHS_00.NP_CVHS_00,100,5,0,0,0,2,0,0,4,0,0,100,1,100,0,100,1105,11005,0,0,1,0,1,1001,800,0,1,-12385,12385,-12385,12385,-12385,12385,0,0,130,220,6,100,0,1,,0,120,150,0,100,100,100,100,100,100,100,7000,0,1000,1000,1,150,4000,3000,60,1000,0,0,0,,,,,,1,360,800,0,0,0,100000,1,300,1,1,0,500,1100031,0,100,0,0,0,0,0,0,0,0,0,25,,,,,,1.7,0.9,0.7,,,,0,0,0,,,,,,,,,,,,0,,,,,,,,,,,,,1,0,0,0,0,0,0
150310,,,,tip.name.npc_monster_150310,다이나웨일,,카양겔_근거리물리,1,0,0,60,EFDLChar_MN_KGGW_03.MN_KGGW_03,100,5,0,0,0,5,0,0,7,100,0,0,1,100,0,100,1105,11005,0,0,7,0,1,1001,800,0,1,-12385,12385,-12385,12385,-12385,12385,0,0,130,220,6,100,0,1,,0,100,200,0,100,100,100,100,100,100,100,7000,0,1000,1000,1,300,2200,1400,60,1000,0,0,0,,,,,,1,360,1500,0,0,0,100000,0,0,1,1,0,500,150310,150311,50,50,0,0,0,0,0,0,0,0,25,,,,,,1.7,0.9,0.7,,,,0,0,0,,,,,,,,,,,,0,,,,,,,,,,,,,1,0,0,0,0,0,0
160000,,,,tip.name.npc_monster_160000,마네스,,루테란 서부 자고라스산 버려진 요새,1,0,0,20,EFDLChar_MN_REMN_00.MN_REMN_00,100,5,0,0,0,3,0,0,1,100,0,0,1,100,100,100,1005,11002,0,0,3,0,1,1001,800,0,1,-12385,12385,-12385,12385,-12385,12385,0,0,100,150,1,100,0,2,,0,100,250,0,100,100,100,100,100,100,100,7010,0,1000,1000,1,400,2200,2000,60,1000,0,0,0,,,,,,1,360,400,0,0,0,100000,0,0,1,1,3000,3000,0,0,0,0,160000,160001,160002,160006,15,25,25,35,,,,,,,1.7,0.9,0.7,,,,0,0,0,,,,,,,,,,,,0,,,,,,,,,,,,,1,0,0,0,0,0,0
160470,,,,tip.name.npc_monster_160470,자이언트 웜_인스,,아레갈 소금평원_인스,1,0,0,17,EFDLChar_NP_ASGW_00.NP_ASGW_00,100,5,0,0,0,2,0,0,1,100,0,0,1,100,6,100,1005,11002,0,0,2,0,1,1001,800,0,0,-12385,12385,-12385,12385,-12385,12385,0,0,90,18,2,100,0,1,,0,150,200,0,100,100,100,100,100,100,100,7000,0,1000,1000,1,300,4000,3000,60,1000,0,0,0,,,,,,1,360,400,0,0,0,100000,0,0,1,1,1000,2000,0,0,0,0,0,0,0,0,0,0,0,0,,,,,,,1.7,0.9,0.7,,,,0,0,0,,,,,,,,,,,,0,,,,,,,,,,,,,1,0,0,0,0,0,0
160830,,,,tip.name.npc_monster_160830,칼라도세,,사피라 동굴,1,0,0,19,EFDLChar_MN_CDEKK_00-1.MN_CDEKK_00-1,100,5,0,0,0,3,0,0,1,100,0,0,1,100,100,100,1005,11002,0,0,3,0,1,1001,800,0,1,-12385,12385,-12385,12385,-12385,12385,0,0,90,18,1,100,0,2,,0,100,200,0,100,100,100,100,100,100,100,160830,0,1000,1000,1,400,2200,2000,60,1000,0,0,0,,,,,,1,360,400,0,0,0,100000,0,0,1,1,1000,1000,160830,160831,50,50,160832,160833,160834,160835,25,25,25,25,,,,,,,1.7,0.9,0.7,,,,0,0,0,,,,,,,,,,,,0,,,,,,,,,,,,,1,0,0,0,0,0,0
180110,,,,tip.name.npc_monster_180110,백색의 마법사,,왕의무덤_근원거리마법,1,0,0,30,EFDLChar_MN_LRRU_00.MN_LRRU_00,100,3,0,0,0,2,0,0,6,0,50,50,1,100,0,100,1103,11005,0,0,1,0,1,1002,800,0,1,-12385,12385,-12385,12385,-12385,12385,0,0,130,220,6,100,0,1,,0,100,200,0,100,100,100,100,100,100,100,7000,0,1000,1000,0,300,4000,3000,60,1000,0,0,0,,,,,,1,360,800,0,0,0,100000,1,300,1,1,0,500,0,0,0,0,180050,180051,180052,180053,25,25,25,25,,,,,,,1.7,0.9,0.7,,,,0,0,0,,,,,,,,,,,,0,,,,,,,,,,,,,1,0,0,0,0,0,0
180120,,,,tip.name.npc_monster_180120,자간,,루테란 왕의 무덤_나선내부,1,0,0,30,EFDLChar_MN_LRZG_00-1.MN_LRZG_00-1,100,5,0,0,0,5,0,0,1,100,0,0,1,100,0,100,0,0,0,0,7,0,1,1001,800,0,1,-12385,12385,-12385,12385,-12385,12385,0,0,130,220,6,100,0,1,,0,0,0,0,100,100,100,100,100,100,100,9061,0,1000,1000,1,0,0,0,60,1000,0,0,0,,,,,,1,360,10000,0,0,180,100000,0,0,0,0,0,500,101310,101311,50,50,0,0,0,0,0,0,0,0,0,,,,,,1.7,0.9,0.7,,,,0,0,0,,,,,,,,,,,,0,,,,,,,,,,,,,1,0,0,0,0,0,0
180121,,,,tip.name.npc_monster_180121,자간,,루테란 왕의 무덤_나선최상층_1페이즈,1,0,0,30,EFDLChar_MN_LRZG_00.MN_LRZG_00,100,5,0,0,0,5,0,0,1,100,0,0,1,100,0,100,0,0,0,0,7,0,1,1001,800,0,1,-12385,12385,-12385,12385,-12385,12385,0,0,130,220,6,100,0,1,,3,0,0,0,100,100,100,100,100,100,100,9060,0,1000,1000,1,0,0,0,60,1000,0,0,0,,,,,,1,360,10000,0,0,180,100000,0,0,0,0,0,500,180101,180108,50,50,180102,180103,180109,0,34,33,33,0,,,,,,,1.7,0.9,0.7,,,,0,0,0,,,,,,,,,,,,0,,,,,,,,,,,,,1,0,0,0,0,0,0
180122,,,,tip.name.npc_monster_180122,자간,,루테란 왕의 무덤_나선최상층_2페이즈,1,0,0,30,EFDLChar_MN_LRZG_00.MN_LRZG_00,100,5,0,0,0,5,0,0,1,100,0,0,1,100,0,100,0,0,0,0,7,0,1,1001,800,0,1,-12385,12385,-12385,12385,-12385,12385,0,0,130,220,6,100,0,1,,2,0,0,0,100,100,100,100,100,100,100,9062,0,1000,1000,1,0,0,0,60,1000,0,0,0,,,,,,1,360,10000,0,0,180,100000,0,0,0,0,0,500,180104,180103,70,30,180101,180102,180108,180109,25,25,25,25,,,,,,,1.7,0.9,0.7,,,,0,0,0,,,,,,,,,,,,0,,,,,,,,,,,,,1,0,0,0,0,0,0
180123,,,,tip.name.npc_monster_180123,자간,,루테란 왕의 무덤_나선최상층_3페이즈,1,0,0,30,EFDLChar_MN_LRZG_00.MN_LRZG_00,100,5,0,0,0,5,0,0,1,100,0,0,1,100,0,100,1105,11005,0,0,7,0,1,1001,800,0,1,-12385,12385,-12385,12385,-12385,12385,0,0,130,220,6,100,0,1,,1,0,0,0,100,100,100,100,100,100,100,9063,0,1000,1000,1,0,0,0,60,1000,0,0,0,,,,,,1,360,10000,0,0,180,100000,0,0,0,0,0,500,180104,180103,70,30,180101,180102,180108,180109,25,25,25,25,,,,,,,1.7,0.9,0.7,,,,0,0,0,,,,,,,,,,,,0,,,,,,,,,,,,,1,0,0,0,0,0,0
200260,,,,tip.name.npc_monster_200260,탐욕의 정수,,애니츠 프롤로그_델파이 객잔_욕망군단 악마,1,0,0,3,EFDLChar_MN_MVDR_00-1.MN_MVDR_00-1,100,4,0,0,0,4,0,0,1,100,0,0,1,100,100,100,100319,11000,,0,4,0,1,1002,800,0,1,-12385,12385,-12385,12385,-12385,12385,0,0,100,100,2,100,0,2,,0,100,200,0,100,100,100,100,100,100,100,7010,0,1000,1000,2,300,4000,3000,60,1000,0,0,0,,,,,,1,360,800,0,0,0,100000,0,0,1,1,1000,1000,0,0,0,0,102670,102671,102672,102673,25,25,25,25,,,,,,,1.7,0.9,0.7,,,,0,0,0,,,,,,,,,,,,0,,,,,,,,,,,,,1,0,0,0,0,0,0
200500,,,,tip.name.npc_monster_200500,마기에 휩싸인 호동,,애니츠 프롤로그_델파이 현_관청 인스턴스_마기에 휩싸인 호동,1,0,0,5,EFDLChar_NP_DPHD_00-3.NP_DPHD_00-3,100,4,0,0,0,2,0,0,1,100,0,0,1,100,0,100,0,0,0,0,1,0,1,1002,800,0,1,-12385,12385,-12385,12385,-12385,12385,0,0,95,120,1,100,0,2,4,0,100,220,0,100,100,100,100,100,100,100,200500,0,1000,1000,1,150,4000,3000,60,1000,0,0,0,,,,,,1,360,800,0,0,0,100000,0,0,0,0,1000,2000,0,0,0,0,1902190,1902191,1902192,1902193,25,25,25,25,,,,,,,1.7,0.9,0.7,,,,0,0,0,,,,,,,,,,,,0,,,,,,,,,,,,,1,0,0,0,0,0,0
200750,,,,tip.name.npc_monster_200750,도깨비 하랑,,애니츠 프롤로그_거울 계곡_수련지 도깨비지역_큰도깨비,1,0,0,8,EFDLChar_MN_FZAN_00.MN_FZAN_00,120,4,0,0,1,2,0,0,1,100,0,0,1,100,100,100,1003,11002,0,0,2,0,1,1003,800,0,1,-12385,12385,-12385,12385,-12385,12385,0,0,100,100,4,100,0,2,3,0,100,200,0,100,100,100,100,100,100,100,7010,0,1000,1000,1,150,4000,3000,60,1000,0,0,0,,,,,,1,360,800,0,0,0,100000,1,400,1,1,2500,3000,0,0,0,0,101690,101691,101692,0,34,33,33,0,,,,,,,1.7,0.9,0.7,,,,0,0,0,,,,,,,,,,,,0,,,,,,,,,,,,,1,0,0,0,0,0,0
200890,,,,tip.name.npc_monster_200890,욕망의 정수_광기_임시모델,,애니츠 프롤로그_거울 계곡_루의 절벽 인스턴스_욕망군단 악마,1,0,0,3,EFDLChar_MN_DPDF_00.MN_DPDF_00,300,4,0,0,0,4,0,0,1,100,0,0,1,100,100,100,100319,11000,0,0,3,0,1,1002,800,0,1,-12385,12385,-12385,12385,-12385,12385,0,0,95,120,2,100,0,2,,0,100,200,0,100,100,100,100,100,100,100,7000,0,1000,1000,2,300,4000,3000,60,1000,0,0,0,,,,,,1,360,800,0,0,0,100000,0,0,1,1,1000,2000,101540,0,100,0,0,0,0,0,0,0,0,0,,,,,,,1.7,0.9,0.7,,,,0,0,0,,,,,,,,,,,,0,,,,,,,,,,,,,1,0,0,0,0,0,0
200980,,,,tip.name.npc_monster_200980,파피마,,애니츠 프롤로그_가디언 계곡_욕망군단 악마_파피마,1,0,0,9,EFDLChar_MN_CDSRR_00.MN_CDSRR_00,110,4,0,2,0,3,0,0,1,100,0,0,1,100,100,100,0,0,0,0,2,0,1,1002,800,0,1,-12385,12385,-12385,12385,-12385,12385,0,0,84,190,4,100,0,2,4,0,100,220,0,100,100,100,100,100,100,100,201000,0,1000,1000,2,0,4000,3000,60,1000,0,0,0,,,,,,1,360,500,0,0,0,100000,0,0,0,0,800,1300,102470,102471,70,30,102472,102473,0,0,50,50,0,0,,,,,,,1.7,0.9,0.7,,,,0,0,0,,,,,,,,,,,,0,,,,,,,,,,,,,1,0,0,0,0,0,0
200990,,,,tip.name.npc_monster_200990,호동,,애니츠 프롤로그_가디언 계곡_적 가문 후계자,1,0,0,10,EFDLChar_NP_DPHD_00-4.NP_DPHD_00-4,100,4,0,0,0,2,0,0,1,100,0,0,1,100,0,100,0,0,0,0,2,0,1,1002,800,0,1,-12385,12385,-12385,12385,-12385,12385,0,0,80,200,1,100,0,2,4,0,100,220,0,100,100,100,100,100,100,100,200990,0,1000,1000,1,150,4000,3000,60,1000,0,0,0,,,,,,1,360,800,0,0,0,100000,0,0,0,0,1000,2000,0,0,0,0,1902190,1902191,1902192,1902193,25,25,25,25,0,,,,,,1.7,0.9,0.7,,,,0,0,0,,,,,,,,,,,,0,,,,,,,,,,,,,1,0,0,0,0,0,0
201000,,,,tip.name.npc_monster_201000,라미로스,욕망군단,애니츠 프롤로그_가디언 계곡_최종 보스,1,0,0,10,EFDLChar_MN_CDSRR_00.MN_CDSRR_00,120,4,0,2,0,3,0,0,1,100,0,0,1,100,100,100,0,0,0,0,3,0,1,1002,400,0,1,-12385,12385,-12385,12385,-12385,12385,0,0,84,190,4,100,0,2,4,0,100,220,0,100,100,100,100,100,100,100,201000,0,1000,1000,2,0,4000,3000,60,1000,0,0,0,,,,,,1,360,500,0,0,0,100000,0,0,0,0,2500,2500,102470,102471,70,30,102472,102473,0,0,50,50,0,0,,,,,,,1.7,0.9,0.7,,,,0,0,0,,,,,,,,,,,,0,,,,,,,,,,,,,0,0,0,0,0,0,0
210000,,,,tip.name.npc_monster_210000,소금거인,,필드,1,0,0,10,EFDLChar_MN_SDSG_00.MN_SDSG_00,130,5,0,0,0,3,0,0,1,100,0,0,1,100,100,100,0,0,0,0,5,0,1,1001,800,0,1,-12385,12385,-12385,12385,-12385,12385,0,0,100,150,8,100,0,2,,0,100,250,0,100,100,100,100,100,100,100,103810,3,10000,15000,1,400,2200,2000,60,1000,0,0,0,,,,,,1,360,400,0,0,0,400000,0,0,0,0,1000,3000,0,0,0,0,0,0,0,0,0,0,0,0,0,,,,,,1.7,0.9,0.7,,,,0,0,0,,,,,,,,,,,,0,,,,,,,,,,,,,1,0,0,0,0,0,0
400000,,,,tip.name.npc_monster_400000,타브리스,,베이스 몬스터,1,0,0,10,EFDLChar_MN_KGTS_00.MN_KGTS_00,100,5,0,0,0,3,0,0,1,100,0,0,1,100,100,100,0,0,0,0,3,0,1,1001,800,0,1,-12385,12385,-12385,12385,-12385,12385,0,0,100,100,1,100,0,0,,0,100,200,0,100,100,100,100,100,100,100,7010,0,1000,1000,1,400,2200,2000,60,1000,0,0,0,,,,,,1,360,400,0,0,0,400000,0,0,0,0,1000,1000,0,0,0,0,0,0,0,0,0,0,0,0,,,,,,,1.7,0.9,0.7,,,,0,0,0,,,,,,,,,,,,0,,,,,,,,,,,,,1,0,0,0,0,0,0
400020,,,,tip.name.npc_monster_400020,어둠의 정령기사,,베이스 몬스터,1,0,0,10,EFDLChar_MN_SQDK_00.MN_SQDK_00,100,5,0,7,0,3,0,0,1,100,0,0,1,100,0,100,0,0,0,0,2,0,1,1001,800,0,1,-12385,12385,-12385,12385,-12385,12385,0,0,92,108,1,100,0,1,,0,95,230,0,100,100,100,100,80,120,100,9020,0,1000,1000,1,300,0,0,60,1000,0,0,0,,,,,,1,360,750,0,0,0,400000,0,0,0,0,0,500,0,0,0,0,100110,100111,100112,0,34,33,33,0,,,,,,,1.7,0.9,0.7,,,,0,0,0,,,,,,,,,,,,0,,,,,,,,,,,,,1,0,0,0,0,0,0
400040,,,,tip.name.npc_monster_400040,거대 시체거미,,베이스 몬스터,1,0,0,10,EFDLChar_MN_LHGS_00.MN_LHGS_00,100,5,0,6,0,3,0,0,1,100,0,0,1,100,0,100,0,0,0,0,4,0,1,1001,800,0,1,-12385,12385,-12385,12385,-12385,12385,0,0,100,90,1,100,0,1,,0,175,225,0,100,100,100,100,110,110,100,7000,0,1000,1000,1,150,3000,3000,60,3000,0,0,0,,,,,,1,360,800,0,0,0,400000,0,0,0,0,0,500,0,0,0,0,100200,100201,100202,100203,10,10,10,70,,,,,,,1.7,0.9,0.7,,,,0,0,0,,,,,,,,,,,,0,,,,,,,,,,,,EFDataPS_MonsterSet.mn_pavr_00,1,0,0,0,0,0,0
400060,,,,tip.name.npc_monster_400060,벨모로크,,베이스 몬스터,1,0,0,10,EFDLChar_MN_PAVR_00.MN_PAVR_00,75,5,0,0,0,3,0,0,2,0,100,0,1,100,0,100,0,0,0,0,2,0,1,1001,800,0,1,-12385,12385,-12385,12385,-12385,12385,0,0,100,100,1,100,0,1,,0,210,250,0,100,100,100,100,100,100,100,9030,0,1000,1000,1,300,2200,2000,60,1000,0,0,0,,,,,,1,360,750,0,0,0,400000,0,0,0,0,0,500,100242,0,100,0,100240,100243,100244,0,34,33,33,0,,,,,,,1.7,0.9,0.7,,,,0,0,0,,,,,,,,,,,,0,,,,,,,,,,,,,1,0,0,0,0,0,0
400080,,,,tip.name.npc_monster_400080,DR. 아이히만,,베이스 몬스터,1,0,0,10,EFDLChar_MN_ELAH_00.MN_ELAH_00,100,5,0,0,0,4,0,0,1,100,0,0,1,100,0,100,0,0,0,0,7,0,1,1001,800,0,1,-12385,12385,-12385,12385,-12385,12385,0,0,100,100,1,100,0,1,,0,75,200,0,100,100,100,100,100,100,100,9010,0,1000,1000,1,300,4000,3000,60,1000,0,0,0,,,,,,1,360,750,0,0,0,400000,0,0,0,0,0,500,0,0,0,0,100530,100531,100532,0,34,33,33,0,,,,,,,1.7,0.9,0.7,,,,0,0,0,,,,,,,,,,,,0,,,,,,,,,,,,,1,0,0,0,0,0,0
400100,,,,tip.name.npc_monster_400100,예가티,,베이스 몬스터,1,0,0,10,EFDLChar_MN_RAET_00.MN_RAET_00,120,5,0,0,0,4,0,0,7,100,0,0,1,100,0,100,0,0,0,0,4,0,1,1001,800,0,1,-12385,12385,-12385,12385,-12385,12385,0,0,100,100,1,100,0,1,,0,130,220,0,100,100,100,100,100,100,100,7000,0,1000,1000,1,300,0,0,60,1000,0,0,0,,,,,,1,360,3000,0,0,180,400000,0,0,0,0,0,500,100595,,100,0,0,0,0,0,0,0,0,0,,,,,,,1.7,0.9,0.7,,,,0,0,0,,,,,,,,,,,,0,,,,,,,,,,,,,1,0,0,0,0,0,0
400120,,,,tip.name.npc_monster_400120,듀라이크,,베이스 몬스터,1,0,0,10,EFDLChar_MN_SJDR_00.MN_SJDR_00,100,5,0,0,0,4,0,0,1,100,0,0,1,100,0,100,0,0,0,0,3,0,1,1001,800,0,1,-12385,12385,-12385,12385,-12385,12385,0,0,100,100,1,100,0,1,,0,100,250,1,100,100,100,100,100,100,100,9070,0,1000,1000,1,300,5000,5000,60,1000,0,0,0,,,,,,1,360,800,0,0,0,400000,0,0,0,0,0,500,101001,0,100,0,101000,101002,101003,0,33,33,34,0,,,,,,,1.7,0.9,0.7,,,,0,0,0,,,,,,,,,,,,0,,,,,,,,,,,,,1,0,0,0,0,0,0
400140,,,,tip.name.npc_monster_400140,파로멘자,,베이스 몬스터,1,0,0,10,EFDLChar_MN_TSPM_00.MN_TSPM_00,100,5,0,0,0,3,0,0,1,100,0,0,1,100,0,100,0,0,0,0,4,0,1,1001,800,0,1,-12385,12385,-12385,12385,-12385,12385,0,0,100,100,1,100,0,1,,0,100,250,0,100,100,100,100,100,100,100,101090,0,1000,1000,1,300,2200,2000,60,1000,0,0,0,,,,,,1,360,400,0,0,0,400000,0,0,0,0,0,500,0,0,0,0,101090,101091,101092,101093,100,0,0,0,,,,,,,1.7,0.9,0.7,,,,0,0,0,,,,,,,,,,,,0,,,,,,,,,,,,,1,0,0,0,0,0,0
400160,,,,tip.name.npc_monster_400160,역병 인도자,,베이스 몬스터,1,0,0,10,EFDLChar_MN_AHPI_00.MN_AHPI_00,100,5,0,0,0,3,0,0,1,100,0,0,1,100,0,100,0,0,0,0,2,0,1,1001,800,0,1,-12385,12385,-12385,12385,-12385,12385,0,0,100,100,1,100,0,1,,0,100,200,0,100,100,100,100,100,100,100,7290,0,1000,1000,1,300,0,0,60,1000,0,0,0,,,,,,1,360,750,0,0,0,400000,0,0,0,0,0,500,101370,101371,50,50,0,0,0,0,0,0,0,25,,,,,,,1.7,0.9,0.7,,,,0,0,0,,,,,,,,,,,,0,,,,,,,,,,,,,1,0,0,0,0,0,0
400180,,,,tip.name.npc_monster_400180,유령선 선원,,베이스 몬스터,1,0,0,10,EFDLChar_MN_GSTSA_00.MN_GSTSA_00,100,5,0,0,0,3,0,0,7,50,30,20,1,100,0,100,0,0,0,0,1,0,1,1001,800,0,1,-12385,12385,-12385,12385,-12385,12385,0,0,100,100,1,100,0,1,,0,100,200,0,100,100,100,100,100,100,100,7000,0,1000,1000,1,300,2200,2000,60,1000,0,0,0,,,,,,1,360,800,0,0,0,400000,0,0,0,0,0,500,101580,101581,50,50,0,0,0,0,0,0,0,0,,,,,,,1.7,0.9,0.7,,,,0,0,0,,,,,,,,,,,,0,,,,,,,,,,,,,1,0,0,0,0,0,0
400200,,,,tip.name.npc_monster_400200,카스릭,,베이스 몬스터,1,0,0,30,EFDLChar_MN_FZKR_00.MN_FZKR_00,100,5,0,0,0,4,0,0,1,100,0,0,1,100,0,100,0,0,0,0,4,0,1,1001,800,0,1,-12385,12385,-12385,12385,-12385,12385,0,0,100,100,1,100,1000,1,,0,100,250,0,100,100,100,100,100,100,100,101800,3,10000,15000,1,300,3500,3000,60,1000,0,0,0,,,,,,1,360,450,0,0,0,400000,0,0,0,0,0,500,101800,101801,50,50,101802,101803,0,0,50,50,0,0,,,,,,,1.7,0.9,0.7,,,,0,0,0,,,,,,,,,,,,0,,,,,,,,,,,,,1,0,0,0,0,0,0
400220,,,,tip.name.npc_monster_400220,다단,,베이스 몬스터,1,0,0,10,EFDLChar_MN_ASDD_00.MN_ASDD_00,100,5,0,0,0,3,0,0,7,100,0,0,1,100,0,100,0,0,0,0,2,0,1,1001,800,0,1,-12385,12385,-12385,12385,-12385,12385,0,0,100,100,1,100,0,1,,0,90,200,0,100,100,100,100,100,100,100,7000,0,1000,1000,1,150,3500,3000,60,1000,0,0,0,,,,,,1,360,800,0,0,0,400000,0,0,0,0,0,500,101810,101811,50,50,0,0,0,0,0,0,0,0,25,25,,,,,1.7,0.9,0.7,,,,0,0,0,,,,,,,,,,,,0,,,,,,,,,,,,,1,0,0,0,0,0,0
400240,,,,tip.name.npc_monster_400240,라미로스,욕망군단,베이스 몬스터,1,0,0,10,EFDLChar_MN_CDSRR_00.MN_CDSRR_00,100,5,0,0,0,2,0,0,7,70,30,0,1,100,100,100,0,0,0,0,1,0,1,1001,800,0,1,-12385,12385,-12385,12385,-12385,12385,0,0,100,100,1,100,0,0,,0,100,200,0,100,100,100,100,100,100,100,7010,0,1000,1000,1,150,2200,2000,60,1000,0,0,0,,,,,,1,360,400,0,0,0,400000,0,0,0,0,2000,3000,102470,102471,70,30,102472,102473,102474,0,34,33,33,0,0,,,,,,1.7,0.9,0.7,,,,0,0,0,,,,,,,,,,,,0,,,,,,,,,,,,,1,0,0,0,0,0,0
400260,,,,tip.name.npc_monster_400260,설원의 수호자,,베이스 몬스터,1,0,0,10,EFDLChar_MN_LGBK_00-1.MN_LGBK_00-1,100,5,0,0,0,4,0,0,1,100,0,0,1,100,100,100,0,0,0,0,3,0,1,1001,800,0,1,-12385,12385,-12385,12385,-12385,12385,0,0,100,100,1,100,0,0,3,0,100,200,0,100,100,100,100,100,100,100,7010,0,1000,1000,1,300,5000,5000,60,1000,0,0,0,,,,,,1,360,400,0,0,0,400000,0,0,0,0,1000,1500,0,0,0,0,102690,102691,102692,102693,25,25,25,25,0,,,,,,1.7,0.9,0.7,,,,0,0,0,,,,,,,,,,,,0,,,,,,,,,,,,,1,0,0,0,0,0,0
400280,,,,tip.name.npc_monster_400280,스태머-1 뒤틀린동백,,베이스 몬스터,1,0,0,10,EFDLChar_MN_PLNSM_00-1.MN_PLNSM_00-1,100,5,0,0,0,3,0,0,1,100,0,0,1,100,100,100,0,0,0,0,3,0,1,1001,800,0,1,-12385,12385,-12385,12385,-12385,12385,0,0,100,100,1,100,0,0,,0,100,100,0,100,100,100,100,100,100,100,103370,3,10000,15000,1,400,3500,3000,60,1000,0,0,0,,,,,,1,360,400,0,0,0,400000,0,0,0,0,1000,1000,103370,103371,50,50,103372,103373,103374,0,40,30,30,0,0,,,,,,1.7,0.9,0.7,,,,0,0,0,,,,,,,,,,,,0,,,,,,,,,,,,,1,0,0,0,0,0,0
400300,,,,tip.name.npc_monster_400300,소금 거인,,베이스 몬스터,1,0,0,10,EFDLChar_MN_SDSG_00.MN_SDSG_00,130,5,0,0,0,3,0,0,1,100,0,0,1,100,100,100,0,0,0,0,5,0,1,1001,800,0,1,-12385,12385,-12385,12385,-12385,12385,0,0,100,150,8,100,0,1,,0,100,250,0,100,100,100,100,100,100,100,103810,3,10000,15000,1,400,2200,2000,60,1000,0,0,0,,,,,,1,360,400,0,0,0,400000,0,0,0,0,1000,3000,0,0,0,0,0,0,0,0,0,0,0,0,0,,,,,,1.7,0.9,0.7,,,,0,0,0,,,,,,,,,,,,0,,,,,,,,,,,,,1,0,0,0,0,0,0
400320,,,,tip.name.npc_monster_400320,알리페르,,베이스 몬스터,1,0,0,30,EFDLChar_MN_RPAP_00.MN_RPAP_00,100,5,0,0,0,4,0,0,1,100,0,0,1,100,0,100,0,0,0,0,3,0,1,1001,800,0,1,-12385,12385,-12385,12385,-12385,12385,0,0,100,100,1,100,2000,1,,0,100,250,0,100,100,100,100,100,100,100,400320,0,1000,1000,1,300,3500,3000,60,1000,0,0,0,,,,,,1,360,450,0,0,0,400000,0,0,0,0,1000,2000,0,0,0,0,400320,400321,400322,400323,25,25,25,25,,,,,,,1.7,0.9,0.7,,,,0,0,0,,,,,,,,,,,,0,,,,,,,,,,,,,1,0,0,0,0,0,0
400340,,,,tip.name.npc_monster_400340,천둥날개,,베이스 몬스터,1,0,0,30,EFDLChar_MN_RPTW_00.MN_RPTW_00,115,5,0,0,0,4,0,0,1,100,0,0,1,100,0,100,0,0,0,0,6,0,1,1001,800,0,1,-12385,12385,-12385,12385,-12385,12385,0,0,100,100,1,100,0,1,,0,100,200,3,100,100,100,100,100,100,100,400340,3,10000,15000,1,400,3500,3000,60,1000,0,0,0,,,,,,1,360,450,0,0,0,400000,0,0,0,0,200,800,0,0,0,0,103900,103901,103903,103904,25,25,25,25,,,,,,,1.7,0.9,0.7,,,,0,0,0,,,,,,,,,,,,0,,,,,,,,,,,,,1,0,0,0,0,0,0
400360,,,,tip.name.npc_monster_400360,릭투스,,베이스 몬스터,1,0,0,30,EFDLChar_MN_RPRS_00.MN_RPRS_00,100,5,0,0,0,4,0,0,1,100,0,0,1,100,0,100,0,0,0,0,4,0,1,1001,800,0,1,-12385,12385,-12385,12385,-12385,12385,0,0,100,100,1,100,0,1,,0,100,250,3,100,100,100,100,100,100,100,400360,3,10000,15000,1,400,3500,3000,60,1000,0,0,0,,,,,,1,360,450,0,0,0,400000,0,0,0,0,200,800,0,0,0,0,400360,400361,400362,0,40,30,30,0,,,,,,,1.7,0.9,0.7,,,,0,0,0,,,,,,,,,,,,0,,,,,,,,,,,,,1,0,0,0,0,0,0
110001,,,,tip.name.npc_monster_110001,새벽 안개 정령,,정령여왕의 정원,1,0,0,2,EFDLChar_MN_SQDS_00.MN_SQDS_00,100,2,0,7,0,2,0,0,1,100,0,0,1,100,6,100,0,0,0,0,1,0,0,0,800,0,0,-12385,12385,-12385,12385,-12385,12385,0,0,92,108,1,100,0,0,,0,100,200,0,100,100,100,100,80,120,100,7000,0,1000,1000,1,300,0,0,60,3000,0,0,0,,,,,,1,360,750,0,0,0,100000,0,0,1,1,1000,2000,100080,100081,60,40,0,0,0,0,0,0,0,0,,,,,,,1.7,0.9,0.7,,,,0,0,0,,,,,,,,,,,,0,,,,,,,,,,,,,0,0,0,0,0,0,0
110002,,,,tip.name.npc_monster_110002,새벽 안개 정령,,베노스 상층부,1,0,0,3,EFDLChar_MN_SQDS_00.MN_SQDS_00,100,2,0,7,0,2,0,0,1,100,0,0,1,100,6,100,0,0,0,0,1,0,0,0,800,0,0,-12385,12385,-12385,12385,-12385,12385,0,0,92,108,1,100,0,0,,0,100,200,0,100,100,100,100,80,120,100,7000,0,1000,1000,1,300,2200,1400,60,3000,0,0,0,,,,,,1,360,600,0,0,0,100000,0,0,1,1,1000,2000,100080,100081,60,40,0,0,0,0,0,0,0,0,,,,,,,1.7,0.9,0.7,,,,0,0,0,,,,,,,,,,,,0,,,,,,,,,,,,,0,0,0,0,0,0,0
110003,,,,tip.name.npc_monster_110003,새벽 안개 정령,,베노스 상층부,1,0,0,4,EFDLChar_MN_SQDS_00.MN_SQDS_00,100,2,0,7,0,2,0,0,1,100,0,0,1,100,6,100,0,0,0,0,1,0,0,0,800,0,0,-12385,12385,-12385,12385,-12385,12385,0,0,92,108,1,100,0,0,,0,100,200,0,100,100,100,100,80,120,100,7000,0,1000,1000,1,300,2200,1400,60,3000,0,0,0,,,,,,1,360,600,0,0,0,100000,0,0,1,1,1000,2000,100080,100081,60,40,0,0,0,0,0,0,0,0,,,,,,,1.7,0.9,0.7,,,,0,0,0,,,,,,,,,,,,0,,,,,,,,,,,,,0,0,0,0,0,0,0
110004,,,,tip.name.npc_monster_110004,새벽 안개 정령,,베노스 상층부,1,0,0,5,EFDLChar_MN_SQDS_00.MN_SQDS_00,100,2,0,7,0,2,0,0,1,100,0,0,1,100,6,100,0,0,0,0,1,0,0,0,800,0,0,-12385,12385,-12385,12385,-12385,12385,0,0,92,108,1,100,0,0,,0,100,200,0,100,100,100,100,80,120,100,7000,0,1000,1000,1,300,0,0,60,3000,0,0,0,,,,,,1,360,600,0,0,0,100000,0,0,1,1,1000,2000,100080,100081,60,40,0,0,0,0,0,0,0,0,,,,,,,1.7,0.9,0.7,,,,0,0,0,,,,,,,,,,,,0,,,,,,,,,,,,,0,0,0,0,0,0,0
110005,,,,tip.name.npc_monster_110005,새벽 안개 정령,,베노스 상층부-바람의 성소 인스턴스,1,0,0,5,EFDLChar_MN_SQDS_00.MN_SQDS_00,100,2,0,7,0,2,0,0,1,100,0,0,1,100,6,100,0,0,0,0,1,0,0,0,800,0,0,-12385,12385,-12385,12385,-12385,12385,0,0,92,108,1,100,0,0,,0,100,200,0,100,100,100,100,80,120,100,7000,0,1000,1000,1,300,0,0,60,3000,0,0,0,,,,,,1,360,3000,0,0,0,100000,0,0,1,1,1000,2000,100080,100081,60,40,0,0,0,0,0,0,0,0,,,,,,,1.7,0.9,0.7,,,,0,0,0,,,,,,,,,,,,0,,,,,,,,,,,,,0,0,0,0,0,0,0
110020,,,,tip.name.npc_monster_110020,악마개,,정령여왕의 정원,1,0,0,2,EFDLChar_MN_PADD_00.MN_PADD_00,100,1,0,0,0,3,0,0,7,50,30,20,1,100,2,100,0,0,0,0,1,0,0,0,800,0,0,-12385,12385,-12385,12385,-12385,12385,0,0,100,100,1,100,0,0,,0,100,300,0,100,100,100,100,100,100,100,7000,0,1000,1000,1,300,0,0,60,1000,0,0,0,,,,,,1,360,750,0,0,0,100000,0,0,1,1,1000,2000,110021,110020,70,30,0,0,0,0,0,0,0,0,,,,,,,1.7,0.9,0.7,,,,0,0,0,,,,,,,,,,,,0,,,,,,,,,,,,,0,0,0,0,0,0,0
110021,,,,tip.name.npc_monster_110021,악마개,,베노스 상층부,1,0,0,3,EFDLChar_MN_PADD_00.MN_PADD_00,100,1,0,0,0,3,0,0,7,50,30,20,1,100,2,100,0,0,0,0,2,0,0,0,800,0,0,-12385,12385,-12385,12385,-12385,12385,0,0,100,100,1,100,0,0,,0,100,300,0,100,100,100,100,100,100,100,7000,0,1000,1000,1,300,2200,1400,60,1000,0,0,0,,,,,,1,360,600,0,0,0,100000,0,0,1,1,1000,2000,110021,110020,70,30,0,0,0,0,0,0,0,0,,,,,,,1.7,0.9,0.7,,,,0,0,0,,,,,,,,,,,,0,,,,,,,,,,,,,0,0,0,0,0,0,0
110022,,,,tip.name.npc_monster_110022,악마개,,베노스 상층부-바람의 성소 인스턴스,1,0,0,5,EFDLChar_MN_PADD_00.MN_PADD_00,100,1,0,0,0,3,0,0,7,50,30,20,1,100,2,100,0,0,0,0,2,0,0,0,800,0,0,-12385,12385,-12385,12385,-12385,12385,0,0,100,100,1,100,0,0,,0,100,300,0,100,100,100,100,100,100,100,7000,0,1000,1000,1,300,0,0,60,1000,0,0,0,,,,,,1,360,3000,0,0,0,100000,0,0,1,1,1000,2000,110021,110020,70,30,0,0,0,0,0,0,0,0,,,,,,,1.7,0.9,0.7,,,,0,0,0,,,,,,,,,,,,0,,,,,,,,,,,,,0,0,0,0,0,0,0
110023,,,,tip.name.npc_monster_110023,악마개,,금제단,1,0,0,8,EFDLChar_MN_PADD_00.MN_PADD_00,100,1,0,0,0,3,0,0,7,50,30,20,1,100,2,100,0,0,0,0,1,0,0,0,800,0,0,-12385,12385,-12385,12385,-12385,12385,0,0,100,100,1,100,0,0,,0,100,300,0,100,100,100,100,100,100,100,7000,0,1000,1000,1,300,0,0,60,1000,0,0,0,,,,,,1,360,750,0,0,0,100000,0,0,1,1,1000,2000,110021,110020,70,30,0,0,0,0,0,0,0,0,,,,,,,1.7,0.9,0.7,,,,0,0,0,,,,,,,,,,,,0,,,,,,,,,,,,,0,0,0,0,0,0,0
110024,,,,tip.name.npc_monster_110024,악마개,,금제단,1,0,0,1,EFDLChar_MN_PADD_00.MN_PADD_00,100,1,0,0,0,3,0,0,7,50,30,20,1,100,2,100,0,0,0,0,1,0,0,0,800,0,0,-12385,12385,-12385,12385,-12385,12385,0,0,100,100,1,100,0,0,,0,100,300,0,100,100,100,100,100,100,100,7000,0,1000,1000,1,300,0,0,60,1000,0,0,0,,,,,,1,360,750,0,0,0,100000,0,0,1,1,1000,2000,110021,110020,70,30,0,0,0,0,0,0,0,0,,,,,,,1.7,0.9,0.7,,,,0,0,0,,,,,,,,,,,,0,,,,,,,,,,,,,0,0,0,0,0,0,0
110030,,,,tip.name.npc_monster_110030,메로크 주술사,,정령여왕의 정원,1,0,0,3,EFDLChar_MN_PAMR_00-1.MN_PAMR_00-1,125,2,0,0,0,2,0,0,7,60,20,20,1,100,6,100,0,0,0,0,1,0,0,0,800,0,0,-12385,12385,-12385,12385,-12385,12385,0,0,100,100,1,100,0,0,,0,60,300,0,100,100,100,100,100,100,100,7000,0,1000,1000,1,300,0,0,60,1000,0,0,0,,,,,,1,360,600,0,0,0,100000,0,0,1,1,1000,2000,110030,110031,60,40,0,0,0,0,0,0,0,0,,,,,,,1.7,0.9,0.7,,,,0,0,0,,,,,,,,,,,,0,,,,,,,,,,,,,0,0,0,0,0,0,0
110031,,,,tip.name.npc_monster_110031,메로크 주술사,,베노스 상층부,1,0,0,4,EFDLChar_MN_PAMR_00.MN_PAMR_00,125,2,0,0,0,2,0,0,7,60,20,20,1,100,6,100,0,0,0,0,1,0,0,0,800,0,0,-12385,12385,-12385,12385,-12385,12385,0,0,100,100,1,100,0,0,,0,60,300,0,100,100,100,100,100,100,100,7000,0,1000,1000,1,300,2200,1400,60,1000,0,0,0,,,,,,1,360,600,0,0,0,100000,0,0,1,1,1000,2000,110030,110031,60,40,0,0,0,0,0,0,0,0,,,,,,,1.7,0.9,0.7,,,,0,0,0,,,,,,,,,,,,0,,,,,,,,,,,,,0,0,0,0,0,0,0
110032,,,,tip.name.npc_monster_110032,메로크 주술사,,베노스 상층부-바람의 성소 인스턴스,1,0,0,6,EFDLChar_MN_PAMR_00.MN_PAMR_00,125,2,0,0,0,2,0,0,7,60,20,20,1,100,6,100,0,0,0,0,1,0,0,0,800,0,0,-12385,12385,-12385,12385,-12385,12385,0,0,100,100,1,100,0,0,,0,60,300,0,100,100,100,100,100,100,100,7000,0,1000,1000,1,300,0,0,60,1000,0,0,0,,,,,,1,360,3000,0,0,0,100000,0,0,1,1,1000,2000,110030,110031,60,40,0,0,0,0,0,0,0,0,,,,,,,1.7,0.9,0.7,,,,0,0,0,,,,,,,,,,,,0,,,,,,,,,,,,,0,0,0,0,0,0,0
110033,,,,tip.name.npc_monster_110033,메로크 주술사,,금제단,1,0,0,10,EFDLChar_MN_PAMR_00.MN_PAMR_00,125,2,0,0,0,2,0,0,7,60,20,20,1,100,6,100,0,0,0,0,1,0,0,0,800,0,0,-12385,12385,-12385,12385,-12385,12385,0,0,100,100,1,100,0,0,,0,60,300,0,100,100,100,100,100,100,100,7000,0,1000,1000,1,300,0,0,60,1000,0,0,0,,,,,,1,360,750,0,0,0,100000,0,0,1,1,1000,2000,110030,110031,60,40,0,0,0,0,0,0,0,0,,,,,,,1.7,0.9,0.7,,,,0,0,0,,,,,,,,,,,,0,,,,,,,,,,,,,0,0,0,0,0,0,0
110060,,,,tip.name.npc_monster_110060,황혼 불꽃 정령,,베노스 상층부,1,0,0,5,EFDLChar_MN_UVDS_00.MN_UVDS_00,100,2,0,0,0,2,0,0,1,100,0,0,1,100,6,100,0,0,0,0,1,0,0,0,800,0,0,-12385,12385,-12385,12385,-12385,12385,0,0,100,100,1,100,0,0,,0,100,200,0,100,100,100,100,100,100,100,7000,0,1000,1000,0,300,2200,1400,60,4200,0,0,0,,,,,,1,360,450,0,0,0,100000,1,400,1,1,1000,2000,110060,0,100,0,0,0,0,0,0,0,0,0,,,,,,,1.7,0.9,0.7,,,,0,0,0,,,,,,,,,,,,0,,,,,,,,,,,,,0,0,0,0,0,0,0
110070,,,,tip.name.npc_monster_110070,알도둑 박쥐,,베노스 상층부,1,0,0,5,EFDLChar_MN_UVEB_00.MN_UVEB_00,100,2,0,8,0,2,0,0,7,50,30,20,1,100,6,100,0,0,0,0,1,0,0,0,800,0,0,-12385,12385,-12385,12385,-12385,12385,0,0,100,112,1,100,0,0,,0,150,150,0,100,100,100,100,110,90,100,7000,0,1000,1000,0,300,2200,1400,60,1000,0,0,0,,,,,,1,360,450,0,0,0,100000,1,400,1,1,1000,2000,100150,0,100,0,0,0,0,0,0,0,0,0,,,,,,,1.7,0.9,0.7,,,,0,0,0,,,,,,,,,,,,0,,,,,,,,,,,,,0,0,0,0,0,0,0
110071,,,,tip.name.npc_monster_110071,알도둑 박쥐,,베노스 상층부-미사용,1,0,0,6,EFDLChar_MN_UVEB_00.MN_UVEB_00,100,2,0,8,0,2,0,0,7,50,30,20,1,100,6,100,0,0,0,0,1,0,0,0,800,0,0,-12385,12385,-12385,12385,-12385,12385,0,0,100,112,1,100,0,0,,0,150,150,0,100,100,100,100,110,90,100,7000,0,1000,1000,0,300,2200,1400,60,1000,0,0,0,,,,,,1,360,600,0,0,0,100000,1,400,1,1,1000,2000,100150,0,100,0,0,0,0,0,0,0,0,0,,,,,,,1.7,0.9,0.7,,,,0,0,0,,,,,,,,,,,,0,,,,,,,,,,,,,0,0,0,0,0,0,0
110100,,,,tip.name.npc_monster_110100,황혼 불꽃 정령,,베노스 상층부-미사용,1,0,0,7,EFDLChar_MN_UVDS_00.MN_UVDS_00,100,2,0,0,0,2,0,0,1,100,0,0,1,100,6,100,0,0,0,0,1,0,0,0,800,0,0,-12385,12385,-12385,12385,-12385,12385,0,0,100,100,1,100,0,0,,0,100,200,0,100,100,100,100,100,100,100,7000,0,1000,1000,0,300,2200,1400,60,4200,0,0,0,,,,,,1,360,600,0,0,0,100000,1,400,1,1,1000,2000,110060,0,100,0,0,0,0,0,0,0,0,0,,,,,,,1.7,0.9,0.7,,,,0,0,0,,,,,,,,,,,,0,,,,,,,,,,,,,0,0,0,0,0,0,0
110110,,,,tip.name.npc_monster_110110,먹구름 정령,,베노스 하층부,1,0,0,7,EFDLChar_MN_LVDS_00.MN_LVDS_00,100,2,0,0,0,2,0,0,1,100,0,0,1,100,6,100,0,0,0,0,1,0,0,0,800,0,0,-12385,12385,-12385,12385,-12385,12385,0,0,100,100,1,100,0,0,,0,100,200,0,100,100,100,100,100,100,100,7000,0,1000,1000,1,300,2200,1400,60,2000,0,0,0,,,,,,1,360,600,0,0,0,100000,1,400,1,1,1000,2000,110110,0,100,0,0,0,0,0,0,0,0,0,,,,,,,1.7,0.9,0.7,,,,0,0,0,,,,,,,,,,,,0,,,,,,,,,,,,,0,0,0,0,0,0,0
110111,,,,tip.name.npc_monster_110111,먹구름 정령,,베노스 하층부-마법 공학소 인스턴스,1,0,0,7,EFDLChar_MN_LVDS_00.MN_LVDS_00,100,2,0,0,0,2,0,0,1,100,0,0,1,100,6,100,0,0,0,0,1,0,0,0,800,0,0,-12385,12385,-12385,12385,-12385,12385,0,0,100,100,1,100,0,0,,0,100,200,0,100,100,100,100,100,100,100,7000,0,1000,1000,1,300,0,0,60,2000,0,0,0,,,,,,1,360,3000,0,0,0,100000,1,400,1,1,1000,2000,110110,0,100,0,0,0,0,0,0,0,0,0,,,,,,,1.7,0.9,0.7,,,,0,0,0,,,,,,,,,,,,0,,,,,,,,,,,,,0,0,0,0,0,0,0
110112,,,,tip.name.npc_monster_110112,먹구름 정령,,베노스 하층부-침묵의 섬 인스턴스,1,0,0,8,EFDLChar_MN_LVDS_00.MN_LVDS_00,100,2,0,0,0,2,0,0,1,100,0,0,1,100,6,100,0,0,0,0,1,0,0,0,800,0,0,-12385,12385,-12385,12385,-12385,12385,0,0,100,100,1,100,0,0,,0,100,200,0,100,100,100,100,100,100,100,7000,0,1000,1000,1,300,0,0,60,2000,0,0,0,,,,,,1,360,3000,0,0,0,100000,1,400,1,1,1000,2000,110110,0,100,0,0,0,0,0,0,0,0,0,,,,,,,1.7,0.9,0.7,,,,0,0,0,,,,,,,,,,,,0,,,,,,,,,,,,,0,0,0,0,0,0,0
110120,,,,tip.name.npc_monster_110120,화염 악마 정령,,베노스 하층부-침묵의 섬 인스턴스,1,0,0,8,EFDLChar_MN_SQDS_01.MN_SQDS_01,100,2,0,7,0,2,0,0,1,100,0,0,1,100,6,100,0,0,0,0,1,0,0,0,800,0,0,-12385,12385,-12385,12385,-12385,12385,0,0,92,108,1,100,0,0,,0,100,250,0,100,100,100,100,80,120,100,7000,0,1000,1000,1,300,0,0,60,3000,0,0,0,,,,,,1,360,3000,0,0,0,100000,0,0,1,1,1000,2000,100130,100131,60,40,0,0,0,0,0,0,0,0,,,,,,,1.7,0.9,0.7,,,,0,0,0,,,,,,,,,,,,0,,,,,,,,,,,,,0,0,0,0,0,0,0
110121,,,,tip.name.npc_monster_110121,화염 악마 정령,,금제단,1,0,0,8,EFDLChar_MN_SQDS_01.MN_SQDS_01,100,2,0,7,0,2,0,0,1,100,0,0,1,100,6,100,0,0,0,0,1,0,0,0,800,0,0,-12385,12385,-12385,12385,-12385,12385,0,0,92,108,1,100,0,0,,0,100,250,0,100,100,100,100,80,120,100,7000,0,1000,1000,1,300,0,0,60,3000,0,0,0,,,,,,1,360,800,0,0,0,100000,0,0,1,1,1000,2000,100130,100131,60,40,0,0,0,0,0,0,0,0,,,,,,,1.7,0.9,0.7,,,,0,0,0,,,,,,,,,,,,0,,,,,,,,,,,,,0,0,0,0,0,0,0
110122,,,,tip.name.npc_monster_110122,화염 악마 정령,,서클사이드,1,0,0,9,EFDLChar_MN_SQDS_01-1.MN_SQDS_01-1,100,2,0,0,0,2,0,0,1,100,0,0,1,100,6,100,1002,11001,0,0,1,0,0,0,800,0,0,-12385,12385,-12385,12385,-12385,12385,0,0,46.75,55.25,1,100,0,0,,0,100,250,0,100,100,100,100,80,100,100,7010,0,1000,1000,1,150,2200,2000,60,1000,0,0,0,,,,,,1,360,750,0,0,0,100000,1,450,1,1,1000,2000,101230,101230,50,50,0,0,0,0,0,0,0,0,,,,,,,1.7,0.9,0.7,,,,0,0,0,,,,,,,,,,,,0,,,,,,,,,,,,,0,0,0,0,0,0,0
110123,,,,tip.name.npc_monster_110123,화염 악마 정령,,서클사이드,1,0,0,9,EFDLChar_MN_SQDS_01-1.MN_SQDS_01-1,100,2,0,0,0,2,0,0,1,100,0,0,1,100,6,100,1002,11001,0,0,1,0,0,0,800,0,0,-12385,12385,-12385,12385,-12385,12385,0,0,46.75,55.25,1,100,0,0,,0,100,250,0,100,100,100,100,80,100,100,7010,0,1000,1000,1,150,2200,2000,60,1000,0,0,0,,,,,,1,360,750,0,0,0,100000,1,450,1,1,1000,2000,101230,101230,50,50,0,0,0,0,0,0,0,0,,,,,,,1.7,0.9,0.7,,,,0,0,0,,,,,,,,,,,,0,,,,,,,,,,,,,0,0,0,0,0,0,0
110124,,,,tip.name.npc_monster_110124,화염 악마 정령,,서클사이드_다데스목표,1,0,0,9,EFDLChar_MN_SQDS_01-1.MN_SQDS_01-1,100,2,0,0,0,2,0,0,1,100,0,0,1,100,6,100,1002,11001,0,0,1,0,0,0,800,0,0,-12385,12385,-12385,12385,-12385,12385,0,0,46.75,55.25,1,100,0,0,,0,100,250,0,100,100,100,100,80,100,100,7010,0,1000,1000,1,150,2200,2000,60,1000,0,0,0,,,,,,1,360,750,0,0,0,100000,1,450,1,1,1000,2000,101230,101230,50,50,0,0,0,0,0,0,0,0,,,,,,,1.7,0.9,0.7,,,,0,0,0,,,,,,,,,,,,0,,,,,,,,,,,,,0,0,0,0,0,0,0
110125,,,,tip.name.npc_monster_110125,화염 악마 정령,,서클사이드_신검,1,0,0,9,EFDLChar_MN_SQDS_01-1.MN_SQDS_01-1,100,2,0,0,0,2,0,0,1,100,0,0,1,100,6,100,1002,11001,0,0,1,0,0,0,800,0,0,-12385,12385,-12385,12385,-12385,12385,0,0,46.75,55.25,1,100,0,0,,0,100,250,0,100,100,100,100,80,100,100,7010,0,1000,1000,1,150,2200,2000,60,1000,0,0,0,,,,,,1,360,750,0,0,0,100000,1,450,1,1,1000,2000,101230,101230,50,50,0,0,0,0,0,0,0,0,,,,,,,1.7,0.9,0.7,,,,0,0,0,,,,,,,,,,,,0,,,,,,,,,,,,,0,0,0,0,0,0,0
110126,,,,tip.name.npc_monster_110126,화염 악마 정령,,서클사이드,1,0,0,9,EFDLChar_MN_SQDS_01-1.MN_SQDS_01-1,100,2,0,0,0,2,0,0,1,100,0,0,1,0,0,0,0,0,0,0,1,0,0,0,800,0,0,-12385,12385,-12385,12385,-12385,12385,0,0,46.75,55.25,1,100,0,0,,0,100,250,0,100,100,100,100,80,100,100,7010,0,1000,1000,1,150,2200,2000,60,1000,0,0,0,,,,,,1,360,750,0,0,0,100000,1,450,1,1,1000,2000,101230,101230,50,50,0,0,0,0,0,0,0,0,,,,,,,1.7,0.9,0.7,,,,0,0,0,,,,,,,,,,,,0,,,,,,,,,,,,,0,0,0,0,0,0,0
110130,,,,tip.name.npc_monster_110130,붉은 부리 백새,,베노스 하층부,1,0,0,8,EFDLChar_MN_LVBS_00.MN_LVBS_00,120,1,0,0,0,2,0,0,7,50,25,25,1,100,2,100,0,0,0,0,1,0,0,0,800,0,0,-12385,12385,-12385,12385,-12385,12385,0,0,100,100,1,100,0,0,,0,75,300,0,100,100,100,100,100,100,100,7000,0,1000,1000,1,300,2200,1400,60,1000,0,0,0,,,,,,1,360,600,0,0,0,100000,1,400,1,1,1000,2000,110130,0,100,0,0,0,0,0,0,0,0,0,,,,,,,1.7,0.9,0.7,,,,0,0,0,,,,,,,,,,,,0,,,,,,,,,,,,,0,0,0,0,0,0,0
110131,,,,tip.name.npc_monster_110131,붉은 부리 백새,,베노스 하층부-마법 공학소 인스턴스,1,0,0,7,EFDLChar_MN_LVBS_00.MN_LVBS_00,120,1,0,0,0,2,0,0,7,50,25,25,1,100,2,100,0,0,0,0,1,0,0,0,800,0,0,-12385,12385,-12385,12385,-12385,12385,0,0,100,100,1,100,0,0,,0,75,300,0,100,100,100,100,100,100,100,7000,0,1000,1000,1,300,0,0,60,1000,0,0,0,,,,,,1,360,3000,0,0,0,100000,1,400,1,1,1000,2000,110130,0,100,0,0,0,0,0,0,0,0,0,,,,,,,1.7,0.9,0.7,,,,0,0,0,,,,,,,,,,,,0,,,,,,,,,,,,,0,0,0,0,0,0,0
110132,,,,tip.name.npc_monster_110132,붉은 부리 백새,,베노스 하층부-침묵의 섬 인스턴스,1,0,0,8,EFDLChar_MN_LVBS_00.MN_LVBS_00,120,1,0,0,0,2,0,0,7,50,25,25,1,100,2,100,0,0,0,0,1,0,0,0,800,0,0,-12385,12385,-12385,12385,-12385,12385,0,0,100,100,1,100,0,0,,0,75,300,0,100,100,100,100,100,100,100,7000,0,1000,1000,1,300,0,0,60,1000,0,0,0,,,,,,1,360,3000,0,0,0,100000,1,400,1,1,1000,2000,110130,0,100,0,0,0,0,0,0,0,0,0,,,,,,,1.7,0.9,0.7,,,,0,0,0,,,,,,,,,,,,0,,,,,,,,,,,,,0,0,0,0,0,0,0
110140,,,,tip.name.npc_monster_110140,불꽃의 환영,,베노스 하층부,1,0,0,9,EFDLChar_MN_LVFG_00.MN_LVFG_00,100,2,0,0,0,2,0,0,1,100,0,0,1,100,6,100,0,0,0,0,1,0,0,0,800,0,0,-12385,12385,-12385,12385,-12385,12385,0,0,100,100,1,100,0,0,,0,90,170,0,100,100,100,100,100,100,100,7000,0,1000,1000,0,300,2200,1400,60,4200,0,0,0,,,,,,1,360,600,0,0,0,100000,1,400,1,1,1000,2000,110140,0,100,0,0,0,0,0,0,0,0,0,,,,,,,1.7,0.9,0.7,,,,0,0,0,,,,,,,,,,,,0,,,,,,,,,,,,,0,0,0,0,0,0,0
110150,,,,tip.name.npc_monster_110150,얼음의 환영,,베노스 하층부,1,0,0,9,EFDLChar_MN_LVSG_00.MN_LVSG_00,100,2,0,0,0,2,0,0,1,100,0,0,1,100,6,100,0,0,0,0,1,0,0,0,800,0,0,-12385,12385,-12385,12385,-12385,12385,0,0,100,100,1,100,0,0,,0,75,200,0,100,100,100,100,100,100,100,7000,0,1000,1000,0,300,2200,1400,60,4200,0,0,0,,,,,,1,360,600,0,0,0,100000,1,400,1,1,1000,2000,110150,0,100,0,0,0,0,0,0,0,0,0,,,,,,,1.7,0.9,0.7,,,,0,0,0,,,,,,,,,,,,0,,,,,,,,,,,,,0,0,0,0,0,0,0
110160,,,,tip.name.npc_monster_110160,마력 오벨리스크,,베노스 하층부,1,0,0,8,EFDLChar_MN_LVMO_00.MN_LVMO_00,100,1,0,0,0,2,0,0,7,0,0,100,1,100,2,100,0,0,0,0,1,0,0,0,800,0,0,-12385,12385,-12385,12385,-12385,12385,0,0,100,100,1,100,0,0,,0,0,0,0,100,100,100,100,100,100,100,7000,0,1000,1000,2,0,1200,1000,60,1000,0,0,0,,,,,,1,360,450,0,0,180,100000,0,0,1,1,1000,2000,110160,110161,50,50,0,0,0,0,0,0,0,0,,,,,,,1.7,0.9,0.7,,,,0,0,0,,,,,,,,,,,,0,,,,,,,,,,,,,0,0,0,0,0,0,0
110180,,,,tip.name.npc_monster_110180,뿌리 정령,,베노스 하층부,1,0,0,6,EFDLChar_MN_LVRS_00.MN_LVRS_00,115,2,0,0,0,2,0,0,5,60,0,40,1,100,6,100,0,0,0,0,1,0,0,0,800,0,0,-12385,12385,-12385,12385,-12385,12385,0,0,100,100,1,100,0,0,,0,100,200,0,100,100,100,100,100,100,100,7000,0,1000,1000,1,300,2200,1400,60,3100,0,0,0,,,,,,1,360,450,0,0,0,100000,1,400,1,1,1000,2000,110180,110181,50,50,0,0,0,0,0,0,0,0,,,,,,,1.7,0.9,0.7,,,,0,0,0,,,,,,,,,,,,0,,,,,,,,,,,,,0,0,0,0,0,0,0
110181,,,,tip.name.npc_monster_110181,진화한 악마개,,금제단,1,0,0,9,EFDLChar_MN_PAED_00.MN_PAED_00,100,2,0,0,0,3,0,0,5,60,0,40,1,100,6,100,0,0,0,0,1,0,0,0,800,0,0,-12385,12385,-12385,12385,-12385,12385,0,0,100,100,1,100,0,0,,0,75,280,0,100,100,100,100,100,100,100,7000,0,1000,1000,1,300,0,0,60,1000,0,0,0,,,,,,1,360,750,0,0,0,100000,0,0,1,1,1000,2000,110182,110183,60,40,0,0,0,0,0,0,0,0,,,,,,,1.7,0.9,0.7,,,,0,0,0,,,,,,,,,,,,0,,,,,,,,,,,,,0,0,0,0,0,0,0
110190,,,,tip.name.npc_monster_110190,저주받은 수호병,,금제단,1,0,0,9,EFDLChar_MN_PACS_00.MN_PACS_00,100,2,0,0,0,2,0,0,4,0,0,100,1,100,6,100,0,0,0,0,1,0,0,0,800,0,0,-12385,12385,-12385,12385,-12385,12385,0,0,100,100,1,100,0,0,,0,100,200,0,100,100,100,100,100,100,100,7000,0,1000,1000,1,300,0,0,60,1000,0,0,0,,,,,,1,360,750,0,0,0,100000,1,400,1,1,1000,2000,110190,0,100,0,0,0,0,0,0,0,0,0,,,,,,,1.7,0.9,0.7,,,,0,0,0,,,,,,,,,,,,0,,,,,,,,,,,,,0,0,0,0,0,0,0
117010,,,,tip.name.npc_monster_117010,오염된 병사,,오즈혼 구릉지,1,0,0,20,EFDLChar_MN_LVRS_00.MN_LVRS_00,115,1,0,0,0,2,0,0,5,60,0,40,1,100,2,100,1001,11000,0,0,1,0,0,0,800,0,0,-12385,12385,-12385,12385,-12385,12385,0,0,100,100,1,100,0,0,,0,100,200,0,100,100,100,100,100,100,100,7000,0,1000,1000,1,300,2200,1400,60,3100,0,0,0,,,,,,1,360,450,0,0,0,100000,1,400,1,1,1000,2000,110180,110181,50,50,0,0,0,0,0,0,0,0,,,,,,,1.7,0.9,0.7,,,,0,0,0,,,,,,,,,,,,0,,,,,,,,,,,,,0,0,0,0,0,0,0
117020,,,,tip.name.npc_monster_117020,거대 역병 벌레 ,,오즈혼 구릉지,1,0,0,20,EFDLChar_MN_LVRS_00.MN_LVRS_00,115,1,0,0,0,2,0,0,5,60,0,40,1,100,2,100,1001,11000,0,0,1,0,0,0,800,0,0,-12385,12385,-12385,12385,-12385,12385,0,0,100,100,1,100,0,0,,0,100,200,0,100,100,100,100,100,100,100,7000,0,1000,1000,1,300,2200,1400,60,3100,0,0,0,,,,,,1,360,450,0,0,0,100000,1,400,1,1,1000,2000,110180,110181,50,50,0,0,0,0,0,0,0,0,,,,,,,1.7,0.9,0.7,,,,0,0,0,,,,,,,,,,,,0,,,,,,,,,,,,,0,0,0,0,0,0,0
117030,,,,tip.name.npc_monster_117030,역병 벌레 성체,,오즈혼 구릉지,1,0,0,20,EFDLChar_MN_AHPI_00.MN_AHPI_00,100,2,0,0,0,3,0,0,1,100,0,0,1,100,6,100,1002,11001,0,0,2,0,0,0,800,0,0,-12385,12385,-12385,12385,-12385,12385,0,0,100,100,1,100,0,0,,0,100,200,0,100,100,100,100,100,100,100,7290,0,1000,1000,1,300,0,0,60,1000,0,0,0,,,,,,1,360,750,0,0,0,100000,0,0,1,1,1000,2000,101370,101371,50,50,0,0,0,0,0,0,0,0,,,,,,,1.7,0.9,0.7,,,,0,0,0,,,,,,,,,,,,0,,,,,,,,,,,,,0,0,0,0,0,0,0
117040,,,,tip.name.npc_monster_117040,역병 벌레 재배자,,오즈혼 구릉지,1,0,0,21,EFDLChar_MN_LHDI_00.MN_LHDI_00,128,1,0,4,0,2,0,0,7,50,30,20,1,100,2,100,1001,11000,0,0,1,0,0,0,800,0,0,-12385,12385,-12385,12385,-12385,12385,0,0,120,90,1,100,0,0,,0,75,120,0,100,100,100,100,90,90,100,7000,0,1000,1000,1,300,4000,3000,60,5500,0,0,0,,,,,,1,360,800,0,0,0,100000,0,0,1,1,1000,2000,100070,100071,60,40,0,0,0,0,0,0,0,0,,,,,,,1.7,0.9,0.7,,,,0,0,0,,,,,,,,,,,,0,,,,,,,,,,,,,0,0,0,0,0,0,0
117050,,,,tip.name.npc_monster_117050,역병점액괴물 변이체,,오즈혼 구릉지,1,0,0,21,EFDLChar_MN_TRBC_00.MN_TRBC_00,100,2,0,0,0,2,0,0,7,35,30,35,1,100,6,100,1002,11001,0,0,1,0,0,0,800,0,0,-12385,12385,-12385,12385,-12385,12385,0,0,100,100,1,100,0,0,,0,150,185,0,100,100,100,100,100,100,100,7000,0,1000,1000,1,300,2200,1400,60,1000,0,0,0,,,,,,1,360,400,0,0,0,100000,0,0,1,1,1000,2000,140070,140071,50,50,0,0,0,0,0,0,0,0,,,,,,,1.7,0.9,0.7,,,,0,0,0,,,,,,,,,,,,0,,,,,,,,,,,,,0,0,0,0,0,0,0
117060,,,,tip.name.npc_monster_117060,불완전 변이체,,오즈혼 구릉지,1,0,0,21,EFDLChar_MN_LHCS_00.MN_LHCS_00,100,2,0,2,0,2,0,0,7,50,30,20,1,100,6,100,1002,11001,0,0,1,0,0,0,800,0,0,-12385,12385,-12385,12385,-12385,12385,0,0,105,95,1,100,0,0,,0,75,150,0,100,100,100,100,100,100,100,7000,0,1000,1000,1,150,4000,3000,60,2500,100149,100,0,,,,,,1,360,800,0,0,0,100000,1,400,1,1,1000,2000,100140,0,100,0,0,0,0,0,0,0,0,0,,,,,,,1.7,0.9,0.7,,,,0,0,0,,,,,,,,,,,,0,,,,,,,,,,,,,0,0,0,0,0,0,0
117070,,,,tip.name.npc_monster_117070,이끼 안개 멍울,,오즈혼 구릉지,1,0,0,21,EFDLChar_MN_TRKM_00.MN_TRKM_00,110,2,0,0,0,2,0,0,7,100,0,0,1,100,6,100,1002,11001,0,0,3,0,0,1001,800,0,0,-12385,12385,-12385,12385,-12385,12385,0,0,100,100,1,100,0,0,,0,55,240,0,100,100,100,100,100,100,100,7000,0,1000,1000,1,300,4000,3000,60,1000,0,0,0,,,,,,1,360,400,0,0,0,100000,0,0,1,1,1000,2000,0,0,0,0,930740,930741,930742,0,34,33,33,0,,,,,,,1.7,0.9,0.7,,,,0,0,0,,,,,,,,,,,,0,,,,,,,,,,,,,0,0,0,0,0,0,0
117080,,,,tip.name.npc_monster_117080,역병 수호자,,오즈혼 구릉지,1,0,0,21,EFDLChar_MN_SJFC_00-4.MN_SJFC_00-4,100,2,0,0,0,2,0,0,7,50,30,20,1,100,6,100,1002,11001,0,0,1,0,0,0,800,0,0,-12385,12385,-12385,12385,-12385,12385,0,0,100,100,1,100,0,0,,0,65,200,0,100,100,100,100,100,100,100,7000,0,1000,1000,1,300,5000,5000,60,1000,0,0,0,,,,,,1,360,800,0,0,0,100000,0,0,1,1,1000,2000,130188,130189,60,40,0,0,0,0,0,0,0,0,,,,,,,1.7,0.9,0.7,,,,0,0,0,,,,,,,,,,,,0,,,,,,,,,,,,,0,0,0,0,0,0,0
117090,,,,tip.name.npc_monster_117090,역병 추종자,,오즈혼 구릉지,1,0,0,21,EFDLChar_NP_KGLA_00.NP_KGLA_00,100,2,0,0,0,3,0,0,3,50,50,0,1,100,6,100,1002,11001,0,0,1,0,0,0,800,0,0,-12385,12385,-12385,12385,-12385,12385,0,0,100,100,1,100,0,0,,0,110,280,0,100,100,100,100,100,100,100,7000,0,1000,1000,1,150,2200,1400,60,1000,0,0,0,,,,,,1,360,450,0,0,0,100000,1,400,1,1,1000,2000,120250,0,100,0,0,0,0,0,0,0,0,0,100,80,40,,,,1.7,0.9,0.7,,,,0,0,0,,,,,,,,,,,,0,,,,,,,,,,,,,0,0,0,0,0,0,0
117100,,,,tip.name.npc_monster_117100,완전한 변이체,,오즈혼 구릉지,1,0,0,21,EFDLChar_MN_TREI_00.MN_TREI_00,100,2,0,0,0,2,0,0,7,50,25,25,1,100,6,100,1002,11001,0,0,1,0,0,0,800,0,0,-12385,12385,-12385,12385,-12385,12385,0,0,100,100,1,100,0,0,,0,100,200,0,100,100,100,100,100,100,100,7000,0,1000,1000,1,300,2200,1400,60,1000,0,0,0,,,,,,1,360,400,0,0,0,100000,0,0,1,1,1000,2000,140060,140061,60,40,0,0,0,0,0,0,0,0,,,,,,,1.7,0.9,0.7,,,,0,0,0,,,,,,,,,,,,0,,,,,,,,,,,,,0,0,0,0,0,0,0
117120,,,,tip.name.npc_monster_117120,역병 폭탄충,,오즈혼 구릉지,1,0,0,22,EFDLChar_MN_AHPF_00.MN_AHPF_00,125,2,0,0,0,2,0,0,7,0,100,0,1,100,6,100,1002,11001,0,0,1,0,0,0,800,0,0,-12385,12385,-12385,12385,-12385,12385,0,0,100,100,1,100,0,0,,0,100,200,0,100,100,100,100,100,100,100,7000,0,1000,1000,1,300,2200,1400,60,1000,0,0,0,,,,,,1,360,600,0,0,0,100000,0,0,1,1,1000,2000,120330,120331,60,40,0,0,0,0,0,0,0,0,,,,,,,1.7,0.9,0.7,,,,0,0,0,,,,,,,,,,,,0,,,,,,,,,,,,,0,0,0,0,0,0,0
117130,,,,tip.name.npc_monster_117130,역병 돌격병,,오즈혼 구릉지,1,0,0,22,EFDLChar_MN_LHUM_00.MN_LHUM_00,100,2,0,4,0,2,0,0,7,50,20,30,1,100,6,100,1002,11001,0,0,1,0,0,0,800,0,0,-12385,12385,-12385,12385,-12385,12385,0,0,120,90,1,100,0,0,,0,65,120,0,100,100,100,100,90,90,100,7000,0,1000,1000,1,300,4000,3000,60,3000,0,0,0,,,,,,1,360,800,0,0,0,100000,0,0,1,1,1000,2000,120030,120031,50,50,0,0,0,0,0,0,0,0,,,,,,,1.7,0.9,0.7,,,,0,0,0,,,,,,,,,,,,0,,,,,,,,,,,,,0,0,0,0,0,0,0
120000,,,,tip.name.npc_monster_120000,블랙풋 - 아만호위용,,루나패스,1,0,0,10,EFDLChar_MN_LPBF_00.MN_LPBF_00,100,1,0,0,0,2,0,0,7,50,40,10,1,100,2,100,0,0,0,0,1,0,0,0,800,0,0,-12385,12385,-12385,12385,-12385,12385,0,0,100,100,1,100,0,0,,0,80,210,0,100,100,100,100,100,100,100,7000,0,1000,1000,2,150,4000,3000,60,1000,0,0,0,,,,,,1,360,800,0,0,0,100000,1,400,1,1,1000,2000,0,0,0,0,170000,170001,170002,0,34,33,33,0,,,,,,,1.7,0.9,0.7,,,,0,0,0,,,,,,,,,,,,0,,,,,,,,,,,,,0,0,0,0,0,0,0
120001,,,,tip.name.npc_monster_120001,블랙풋,,루나패스,1,0,0,10,EFDLChar_MN_LPBF_00.MN_LPBF_00,100,1,0,0,0,2,0,0,7,50,40,10,1,100,2,100,0,0,0,0,1,40,0,0,800,0,0,-12385,12385,-12385,12385,-12385,12385,0,0,100,100,1,100,0,0,,0,80,250,0,100,100,100,100,100,100,100,7000,0,1000,1000,1,150,4000,3000,60,1000,0,0,0,,,,,,1,360,800,0,0,0,100000,1,400,1,1,1000,2000,0,0,0,0,170000,170001,170002,0,34,33,33,0,,,,,,,1.7,0.9,0.7,,,,0,0,0,,,,,,,,,,,,0,,,,,,,,,,,,,0,0,0,0,0,0,0
120002,,,,tip.name.npc_monster_120002,블랙풋,,루나패스,1,0,0,10,EFDLChar_MN_LPBF_00.MN_LPBF_00,100,1,0,0,0,2,0,0,7,50,40,10,1,100,2,100,0,0,0,0,1,20,0,0,800,0,0,-12385,12385,-12385,12385,-12385,12385,0,0,100,100,1,100,0,0,,0,80,250,0,100,100,100,100,100,100,100,7000,0,1000,1000,1,150,4000,3000,60,1000,0,0,0,,,,,,1,360,800,0,0,0,100000,1,400,1,1,1000,2000,0,0,0,0,170000,170001,170002,0,34,33,33,0,,,,,,,1.7,0.9,0.7,,,,0,0,0,,,,,,,,,,,,0,,,,,,,,,,,,,0,0,0,0,0,0,0
120003,,,,tip.name.npc_monster_120003,블랙풋,,루나패스,1,0,0,10,EFDLChar_MN_LPBF_00.MN_LPBF_00,100,1,0,0,0,2,0,0,7,50,40,10,1,100,2,100,0,0,0,0,1,-1,0,0,800,0,0,-12385,12385,-12385,12385,-12385,12385,0,0,100,100,1,100,0,0,,0,80,250,0,100,100,100,100,100,100,100,7000,0,1000,1000,1,150,4000,3000,60,1000,0,0,0,,,,,,1,360,800,0,0,0,100000,1,400,1,1,1000,2000,0,0,0,0,170000,170001,170002,0,34,33,33,0,,,,,,,1.7,0.9,0.7,,,,0,0,0,,,,,,,,,,,,0,,,,,,,,,,,,,0,0,0,0,0,0,0
120010,,,,tip.name.npc_monster_120010,수상한 신도,,루나패스_근거리물리,1,0,0,10,EFDLChar_NP_LPSV_01.NP_LPSV_01,100,1,0,0,0,2,0,0,7,50,40,10,1,100,2,100,0,0,0,0,1,0,0,0,800,0,0,-12385,12385,-12385,12385,-12385,12385,0,0,100,100,1,100,0,0,,0,95,300,0,100,100,100,100,100,100,100,7000,0,1000,1000,2,150,4000,3000,60,1000,0,0,0,,,,,,1,360,800,0,0,0,100000,1,400,1,1,1000,2000,1901580,1901581,70,30,0,0,0,0,0,0,0,0,,,,,,,1.7,0.9,0.7,,,,0,0,0,,,,,,,,,,,,0,,,,,,,,,,,,,0,0,0,0,0,0,0
120020,,,,tip.name.npc_monster_120020,낙인된 감염자,,레온하트,1,0,0,12,EFDLChar_MN_LHDI_00.MN_LHDI_00,128,1,0,4,0,2,0,0,7,50,30,20,1,100,2,100,1001,11000,0,0,1,0,0,0,800,0,0,-12385,12385,-12385,12385,-12385,12385,0,0,120,90,1,100,0,0,,0,75,120,0,100,100,100,100,90,90,100,7000,0,1000,1000,1,300,4000,3000,60,5500,0,0,0,,,,,,1,360,800,0,0,0,100000,0,0,1,1,1000,2000,100070,100071,60,40,0,0,0,0,0,0,0,0,,,,,,,1.7,0.9,0.7,,,,0,0,0,,,,,,,,,,,,0,,,,,,,,,,,,,0,0,0,0,0,0,0
120030,,,,tip.name.npc_monster_120030,불완전 변이체,,레온하트,1,0,0,12,EFDLChar_MN_LHUM_00.MN_LHUM_00,100,2,0,4,0,2,0,0,7,50,20,30,1,100,6,100,1002,11001,0,0,1,0,0,0,800,0,0,-12385,12385,-12385,12385,-12385,12385,0,0,120,90,1,100,0,0,,0,65,120,0,100,100,100,100,90,90,100,7000,0,1000,1000,1,300,4000,3000,60,3000,0,0,0,,,,,,1,360,800,0,0,0,100000,0,0,1,1,1000,2000,120030,120031,50,50,0,0,0,0,0,0,0,0,,,,,,,1.7,0.9,0.7,,,,0,0,0,,,,,,,,,,,,0,,,,,,,,,,,,,0,0,0,0,0,0,0
120040,,,,tip.name.npc_monster_120040,뒤엉킨 변이체,,레온하트,1,0,0,12,EFDLChar_MN_LHCM_00.MN_LHCM_00,100,2,0,4,0,3,0,0,7,50,20,30,1,100,6,100,1002,11001,0,0,2,0,0,0,800,0,0,-12385,12385,-12385,12385,-12385,12385,0,0,120,90,1,100,0,0,,0,75,120,0,100,100,100,100,90,90,100,7000,0,1000,1000,1,300,4000,3000,60,4000,0,0,0,,,,,,1,360,800,0,0,0,100000,0,0,1,1,1000,2000,120040,120041,50,50,0,0,0,0,0,0,0,0,,,,,,,1.7,0.9,0.7,,,,0,0,0,,,,,,,,,,,,0,,,,,,,,,,,,,0,0,0,0,0,0,0
120060,,,,tip.name.npc_monster_120060,거대 시체거미,,레온하트,1,0,0,13,EFDLChar_MN_LHGS_00.MN_LHGS_00,100,3,0,0,0,5,0,0,4,0,0,100,1,100,100,100,1003,11002,0,0,5,0,1,1003,800,0,1,-12385,12385,-12385,12385,-12385,12385,0,0,100,100,1,100,0,2,,0,175,225,0,100,100,100,100,100,100,100,7210,0,1000,1000,1,150,4000,3000,60,3000,0,0,0,,,,,,1,360,800,0,0,0,100000,1,400,1,1,1000,2000,0,0,0,0,120060,120061,120062,0,34,33,33,0,,,,,,,1.7,0.9,0.7,,,,0,0,0,,,,,,,,,,,,0,,,,,,,,,,,,,0,0,0,0,0,0,0
120070,,,,tip.name.npc_monster_120070,악마의 하수인,,레온하트 성당,1,0,0,10,EFDLChar_MN_PADD_00.MN_PADD_00,100,1,0,0,0,2,0,0,7,50,20,30,1,100,2,100,1001,11000,0,0,1,0,0,0,800,0,0,-12385,12385,-12385,12385,-12385,12385,0,0,100,100,1,100,0,0,,0,100,300,0,100,100,100,100,100,100,100,7000,0,1000,1000,1,300,2200,1400,60,5500,0,0,0,,,,,,1,360,450,0,0,0,100000,0,0,1,1,1000,2000,110021,110020,70,30,0,0,0,0,0,0,0,0,,,,,,,1.7,0.9,0.7,,,,0,0,0,,,,,,,,,,,,0,,,,,,,,,,,,,0,0,0,0,0,0,0
120080,,,,tip.name.npc_monster_120080,낙인된 감염자,,메피토의 지하연구실,1,0,0,13,EFDLChar_MN_LHDI_00.MN_LHDI_00,128,1,0,4,0,2,0,0,7,50,30,20,1,100,2,100,1001,11000,0,0,1,0,0,0,800,0,0,-12385,12385,-12385,12385,-12385,12385,0,0,120,90,1,100,0,0,,0,75,120,0,100,100,100,100,90,90,100,7000,0,1000,1000,1,300,2200,1400,60,5500,0,0,0,,,,,,1,360,800,0,0,0,100000,0,0,1,1,1000,2000,100070,100071,60,40,0,0,0,0,0,0,0,0,,,,,,,1.7,0.9,0.7,,,,0,0,0,,,,,,,,,,,,0,,,,,,,,,,,,,0,0,0,0,0,0,0
120090,,,,tip.name.npc_monster_120090,뒤엉킨 변이체,,메피토의 지하연구실,1,0,0,14,EFDLChar_MN_LHCM_00.MN_LHCM_00,100,2,0,4,0,3,0,0,7,50,20,30,1,100,6,100,1002,11001,0,0,2,0,0,0,800,0,0,-12385,12385,-12385,12385,-12385,12385,0,0,120,90,1,100,0,0,,0,75,120,0,100,100,100,100,90,90,100,7000,0,1000,1000,1,300,2200,1400,60,4000,0,0,0,,,,,,1,360,800,0,0,0,100000,0,0,1,1,1000,2000,120040,120041,50,50,0,0,0,0,0,0,0,0,,,,,,,1.7,0.9,0.7,,,,0,0,0,,,,,,,,,,,,0,,,,,,,,,,,,,0,0,0,0,0,0,0
120100,,,,tip.name.npc_monster_120100,크로클로우,,로그힐,1,0,0,12,EFDLChar_MN_LGCL_00.MN_LGCL_00,100,2,0,0,0,2,0,0,7,50,30,20,1,100,6,100,1002,11001,0,0,1,0,0,0,800,0,0,-12385,12385,-12385,12385,-12385,12385,0,0,100,100,1,100,0,0,,0,75,200,0,100,100,100,100,100,100,100,7000,0,1000,1000,1,300,2200,1400,60,1000,0,0,0,,,,,,1,360,450,0,0,0,100000,0,0,1,1,1000,2000,120100,120101,50,50,0,0,0,0,0,0,0,0,,,,,,,1.7,0.9,0.7,,,,0,0,0,,,,,,,,,,,,0,,,,,,,,,,,,,0,0,0,0,0,0,0
120110,,,,tip.name.npc_monster_120110,루푸스,,로그힐,1,0,0,11,EFDLChar_MN_LGLP_00.MN_LGLP_00,100,2,0,0,0,3,0,1,7,50,30,20,1,100,6,100,1002,11001,0,0,1,0,0,0,800,0,0,-12385,12385,-12385,12385,-12385,12385,0,0,100,100,1,100,0,0,,0,187,250,0,100,100,100,100,100,100,100,7000,0,1000,1000,1,300,2200,1400,60,1000,0,0,0,,,,,,1,360,450,0,0,0,100000,0,0,1,1,1000,2000,120110,120111,50,50,0,0,0,0,0,0,0,0,,,,,,,1.7,0.9,0.7,,,,0,0,0,,,,,,,,,,,,0,,,,,,,,,,,,,0,0,0,0,0,0,0
120130,,,,tip.name.npc_monster_120130,독화살 도굴단원,,로그힐,1,0,0,11,EFDLChar_MN_LGAR_00.MN_LGAR_00,100,2,0,0,0,2,0,0,7,50,30,20,1,100,6,100,1002,11001,0,0,1,0,0,0,800,0,0,-12385,12385,-12385,12385,-12385,12385,0,0,100,100,1,100,0,0,,0,60,250,0,100,100,100,100,100,100,100,7000,0,1000,1000,1,150,2200,1400,60,1000,0,0,0,,,,,,1,360,450,0,0,0,100000,1,400,1,1,1000,2000,120130,120131,50,50,0,0,0,0,0,0,0,0,,,,,,,1.7,0.9,0.7,,,,0,0,0,,,,,,,,,,,,0,,,,,,,,,,,,,0,0,0,0,0,0,0
120140,,,,tip.name.npc_monster_120140,독안개 도굴단원,,로그힐,1,0,0,11,EFDLChar_MN_LGFR_00.MN_LGFR_00,100,2,0,0,0,2,0,0,7,50,30,20,1,100,6,100,1002,11001,0,0,1,0,0,0,800,0,0,-12385,12385,-12385,12385,-12385,12385,0,0,100,100,1,100,0,0,,0,70,250,0,100,100,100,100,100,100,100,7000,0,1000,1000,1,150,2200,1400,60,1000,0,0,0,,,,,,1,360,450,0,0,0,100000,1,400,1,1,1000,2000,120140,120141,50,50,0,0,0,0,0,0,0,0,,,,,,,1.7,0.9,0.7,,,,0,0,0,,,,,,,,,,,,0,,,,,,,,,,,,,0,0,0,0,0,0,0
120150,,,,tip.name.npc_monster_120150,마군단 폭파병,,로그힐,1,0,0,11,EFDLChar_MN_LGDP_00.MN_LGDP_00,100,2,0,0,0,2,0,0,5,70,0,30,1,100,6,100,1002,11001,0,0,1,0,0,0,800,0,0,-12385,12385,-12385,12385,-12385,12385,0,0,100,100,1,100,0,0,,0,80,200,0,100,100,100,100,100,100,100,7000,0,1000,1000,1,150,2200,1400,60,1000,0,0,0,,,,,,1,360,700,0,0,0,100000,1,400,1,1,1000,2000,120150,120151,50,50,0,0,0,0,0,0,0,0,,,,,,,1.7,0.9,0.7,,,,0,0,0,,,,,,,,,,,,0,,,,,,,,,,,,,0,0,0,0,0,0,0
